City_ID,City,Country,Date,Lat,Lng,Max Temp,Humidity,Cloudiness,Wind Speed
0,Rio Verde De Mato Grosso,BR,2022-02-11 02:54:07,-18.9181,-54.8442,70.59,95,94,5.12
1,Jamestown,US,2022-02-11 02:52:07,42.097,-79.2353,31.01,68,100,6.91
2,Hermanus,ZA,2022-02-11 02:54:08,-34.4187,19.2345,60.91,79,0,2.66
3,Mwene-Ditu,CD,2022-02-11 02:54:09,-7.0,23.45,65.64,97,100,4.27
4,Boa Vista,BR,2022-02-11 02:54:09,2.8197,-60.6733,84.18,58,20,10.36
5,Aykhal,RU,2022-02-11 02:54:09,66.0,111.5,-3.59,97,97,5.77
6,Sabha,LY,2022-02-11 02:54:10,27.0377,14.4283,45.84,53,0,9.73
7,Rikitea,PF,2022-02-11 02:54:10,-23.1203,-134.9692,79.25,73,34,14.83
8,Richards Bay,ZA,2022-02-11 02:54:10,-28.783,32.0377,69.87,89,25,5.48
9,Butaritari,KI,2022-02-11 02:54:11,3.0707,172.7902,82.26,79,16,18.37
10,Clyde River,CA,2022-02-11 02:54:11,70.4692,-68.5914,-19.97,69,100,14.97
11,East London,ZA,2022-02-11 02:54:11,-33.0153,27.9116,69.69,83,52,3.74
12,Ketchikan,US,2022-02-11 02:54:11,55.3422,-131.6461,39.18,83,100,2.86
13,Tutoia,BR,2022-02-11 02:54:12,-2.7619,-42.2744,80.58,86,96,7.07
14,New Norfolk,AU,2022-02-11 02:54:12,-42.7826,147.0587,68.76,38,11,1.99
15,Port Blair,IN,2022-02-11 02:54:12,11.6667,92.75,80.64,83,40,8.05
16,Bismarck,US,2022-02-11 02:53:42,46.8083,-100.7837,40.87,78,100,20.71
17,Port Elizabeth,ZA,2022-02-11 02:54:13,-33.918,25.5701,61.09,82,0,4.61
18,Pitimbu,BR,2022-02-11 02:54:13,-7.4706,-34.8086,81.19,76,57,7.94
19,Busselton,AU,2022-02-11 02:54:13,-33.65,115.3333,84.81,42,0,9.93
20,Laguna,US,2022-02-11 02:54:14,38.421,-121.4238,66.02,69,0,2.44
21,Waipawa,NZ,2022-02-11 02:54:14,-41.4122,175.5153,68.45,79,100,6.4
22,Port Moresby,PG,2022-02-11 02:50:33,-9.4431,147.1797,87.22,55,20,11.5
23,Gambela,ET,2022-02-11 02:54:14,8.25,34.5833,77.11,39,82,2.8
24,Atuona,PF,2022-02-11 02:54:15,-9.8,-139.0333,78.51,72,11,16.91
25,Pochutla,MX,2022-02-11 02:54:15,15.7432,-96.4661,77.83,78,2,2.77
26,Awbari,LY,2022-02-11 02:54:15,26.5921,12.7805,45.09,56,0,7.07
27,Kaitangata,NZ,2022-02-11 02:54:16,-46.2817,169.8464,63.81,71,18,7.78
28,Hilo,US,2022-02-11 02:54:16,19.7297,-155.09,75.25,89,8,4.0
29,Lorengau,PG,2022-02-11 02:54:16,-2.0226,147.2712,83.03,78,100,7.2
30,Qaanaaq,GL,2022-02-11 02:54:17,77.484,-69.3632,-22.36,62,93,4.81
31,Cherskiy,RU,2022-02-11 02:54:17,68.75,161.3,-29.81,97,100,5.57
32,Rondonopolis,BR,2022-02-11 02:54:17,-16.4708,-54.6356,70.0,98,100,3.33
33,Cumpas,MX,2022-02-11 02:54:18,29.9833,-109.7833,60.67,17,1,8.99
34,Mataura,NZ,2022-02-11 02:54:18,-46.1927,168.8643,63.48,52,34,7.14
35,Sitka,US,2022-02-11 02:54:18,57.0531,-135.33,28.13,79,91,3.98
36,Punta Arenas,CL,2022-02-11 02:54:19,-53.15,-70.9167,44.71,57,75,5.75
37,Arraias,BR,2022-02-11 02:54:19,-12.9288,-46.9437,67.6,95,100,3.09
38,Kavieng,PG,2022-02-11 02:54:19,-2.5744,150.7967,83.64,71,93,6.06
39,Bilibino,RU,2022-02-11 02:54:19,68.0546,166.4372,-33.43,97,64,1.41
40,Severo-Kurilsk,RU,2022-02-11 02:53:58,50.6789,156.125,28.9,72,90,4.27
41,Vardo,NO,2022-02-11 02:54:20,70.3705,31.1107,21.4,82,89,12.55
42,Provideniya,RU,2022-02-11 02:54:20,64.3833,-173.3,-9.29,64,0,11.18
43,Lloydminster,CA,2022-02-11 02:54:20,53.2835,-110.0016,28.08,86,100,18.41
44,Port Alfred,ZA,2022-02-11 02:54:21,-33.5906,26.891,66.85,86,6,5.88
45,Phan Thiet,VN,2022-02-11 02:52:54,10.9333,108.1,86.79,52,95,10.85
46,Katsuura,JP,2022-02-11 02:54:21,35.1333,140.3,50.18,63,97,18.59
47,Silver City,US,2022-02-11 02:54:21,32.7701,-108.2803,48.63,32,0,4.0
48,Avera,US,2022-02-11 02:54:22,33.194,-82.5271,49.51,54,8,4.76
49,Beloha,MG,2022-02-11 02:54:22,-25.1667,45.05,73.85,89,74,9.42
50,Cape Town,ZA,2022-02-11 02:50:03,-33.9258,18.4232,63.27,78,0,4.61
51,Sao Felix Do Xingu,BR,2022-02-11 02:54:22,-6.6447,-51.995,72.1,98,99,0.11
52,Hobart,AU,2022-02-11 02:54:23,-42.8794,147.3294,69.12,52,40,20.71
53,Saldanha,ZA,2022-02-11 02:54:23,-33.0117,17.9442,57.25,87,0,10.87
54,Olga,RU,2022-02-11 02:54:23,43.7444,135.2892,30.74,63,85,2.3
55,Tuatapere,NZ,2022-02-11 02:54:23,-46.1333,167.6833,63.82,73,70,9.75
56,Nanortalik,GL,2022-02-11 02:54:24,60.1432,-45.2371,26.94,64,100,4.56
57,Nuuk,GL,2022-02-11 02:54:24,64.1835,-51.7216,27.88,74,100,15.99
58,Krasnouralsk,RU,2022-02-11 02:54:24,58.3638,60.0407,9.46,93,100,11.83
59,Ushuaia,AR,2022-02-11 02:54:25,-54.8,-68.3,44.26,81,40,23.02
60,Bograd,RU,2022-02-11 02:54:25,54.2344,90.8328,-27.09,96,36,2.55
61,Chaman,PK,2022-02-11 02:54:26,30.9236,66.4512,43.59,29,0,3.06
62,Soyo,AO,2022-02-11 02:54:26,-6.1349,12.3689,75.96,89,48,8.28
63,Saint-Francois,FR,2022-02-11 02:54:26,46.4154,3.9054,44.04,93,100,11.5
64,Tasiilaq,GL,2022-02-11 02:54:26,65.6145,-37.6368,7.48,62,100,5.86
65,Burnie,AU,2022-02-11 02:54:27,-41.0667,145.9167,73.94,33,0,9.01
66,San Cristobal,VE,2022-02-11 02:54:27,7.7669,-72.225,71.78,91,84,1.54
67,Torbay,CA,2022-02-11 02:54:27,47.6666,-52.7314,32.76,89,75,14.97
68,Santa Cruz,BO,2022-02-11 02:51:01,-17.8,-63.1667,76.46,78,49,5.75
69,Flinders,AU,2022-02-11 02:54:28,-34.5833,150.8552,74.17,78,100,10.0
70,Lompoc,US,2022-02-11 02:54:28,34.6391,-120.4579,68.77,40,0,1.01
71,Saint George,US,2022-02-11 02:53:33,37.1041,-113.5841,60.26,35,0,9.22
72,Upernavik,GL,2022-02-11 02:54:28,72.7868,-56.1549,-16.4,99,67,5.32
73,Hithadhoo,MV,2022-02-11 02:54:29,-0.6,73.0833,80.94,68,100,3.44
74,Avarua,CK,2022-02-11 02:50:11,-21.2078,-159.775,78.85,78,75,9.22
75,Puerto Madryn,AR,2022-02-11 02:54:11,-42.7692,-65.0385,59.29,55,0,13.49
76,Chuy,UY,2022-02-11 02:54:29,-33.6971,-53.4616,69.49,82,0,10.31
77,Ribeira Grande,PT,2022-02-11 02:54:29,38.5167,-28.7,59.99,70,100,9.62
78,Klaksvik,FO,2022-02-11 02:54:30,62.2266,-6.589,38.32,67,94,27.36
79,Leningradskiy,RU,2022-02-11 02:54:30,69.3833,178.4167,-25.35,96,62,3.22
80,Carnarvon,AU,2022-02-11 02:54:30,-24.8667,113.6333,93.27,43,16,10.36
81,Kapaa,US,2022-02-11 02:54:31,22.0752,-159.319,77.18,68,25,1.99
82,Moussoro,TD,2022-02-11 02:54:31,13.6408,16.4901,59.25,24,1,17.38
83,Hamilton,US,2022-02-11 02:51:50,39.1834,-84.5333,36.23,71,0,0.0
84,Saint-Pierre,RE,2022-02-11 02:54:31,-21.3393,55.4781,74.88,64,0,8.05
85,Malanje,AO,2022-02-11 02:54:32,-9.5402,16.341,60.89,75,98,2.57
86,Vaini,TO,2022-02-11 02:54:32,-21.2,-175.2,86.16,84,40,11.5
87,Batticaloa,LK,2022-02-11 02:54:32,7.7102,81.6924,78.84,79,100,3.94
88,Ojinaga,MX,2022-02-11 02:54:32,29.5667,-104.4167,60.42,22,0,0.0
89,Albany,US,2022-02-11 02:53:43,42.6001,-73.9662,36.81,88,36,2.84
90,Lata,PT,2022-02-11 02:54:33,40.1629,-8.3327,50.72,64,90,4.74
91,Qasigiannguit,GL,2022-02-11 02:54:33,68.8193,-51.1922,-7.49,84,100,2.08
92,Barcarena,BR,2022-02-11 02:54:33,-1.5058,-48.6258,75.25,88,100,6.55
93,Mar Del Plata,AR,2022-02-11 02:50:05,-38.0023,-57.5575,73.09,91,0,21.0
94,Makueni,KE,2022-02-11 02:54:34,-1.8041,37.6203,60.28,84,50,2.04
95,Kodinsk,RU,2022-02-11 02:54:34,58.6881,99.1844,-11.15,98,99,1.68
96,Gat,IL,2022-02-11 02:54:35,31.61,34.7642,51.4,100,30,1.41
97,Concarneau,FR,2022-02-11 02:54:35,47.875,-3.9225,38.17,79,3,6.38
98,Cedar Rapids,US,2022-02-11 02:53:15,42.0083,-91.6441,38.25,62,100,17.0
99,Huarmey,PE,2022-02-11 02:54:35,-10.0681,-78.1522,71.44,79,100,5.84
100,Skibbereen,IE,2022-02-11 02:54:36,51.55,-9.2667,37.2,74,100,1.25
101,Nikolskoye,RU,2022-02-11 02:54:36,59.7035,30.7861,32.4,92,97,8.14
102,Coahuayana,MX,2022-02-11 02:54:36,18.7333,-103.6833,67.35,66,0,3.85
103,Hambantota,LK,2022-02-11 02:54:37,6.1241,81.1185,75.54,100,75,3.44
104,Lamesa,US,2022-02-11 02:54:37,32.7376,-101.951,51.53,26,0,6.78
105,Tezu,IN,2022-02-11 02:54:37,27.9167,96.1667,63.01,60,75,2.06
106,Bredasdorp,ZA,2022-02-11 02:54:37,-34.5322,20.0403,52.92,87,0,4.61
107,Camacha,PT,2022-02-11 02:54:38,33.0833,-16.3333,61.56,94,20,6.91
108,Dikson,RU,2022-02-11 02:54:38,73.5069,80.5464,6.03,93,100,26.73
109,Hearst,CA,2022-02-11 02:54:38,49.6835,-83.6665,5.25,94,100,6.49
110,Jishou,CN,2022-02-11 02:54:39,28.3167,109.7167,39.88,92,100,1.5
111,Souillac,MU,2022-02-11 02:54:39,-20.5167,57.5167,76.35,94,40,2.3
112,Jasper,US,2022-02-11 02:54:39,37.2001,-94.3502,48.02,52,30,3.0
113,Saskylakh,RU,2022-02-11 02:54:40,71.9167,114.0833,2.68,94,94,11.52
114,Petropavlovsk-Kamchatskiy,RU,2022-02-11 02:54:40,53.0452,158.6483,21.79,58,0,4.47
115,Tuktoyaktuk,CA,2022-02-11 02:54:41,69.4541,-133.0374,-18.4,76,100,20.71
116,Darhan,MN,2022-02-11 02:54:41,49.4867,105.9228,-9.65,94,33,0.43
117,Shieli,KZ,2022-02-11 02:54:42,44.1667,66.75,35.02,69,92,10.27
118,Zhigansk,RU,2022-02-11 02:54:43,66.7697,123.3711,-22.32,96,100,12.75
119,Ibra,OM,2022-02-11 02:54:43,22.6906,58.5334,58.87,61,0,2.84
120,Bluff,NZ,2022-02-11 02:54:43,-46.6,168.3333,63.81,74,29,10.83
121,Pevek,RU,2022-02-11 02:54:44,69.7008,170.3133,-27.89,97,100,8.41
122,Pathein,MM,2022-02-11 02:54:44,16.7833,94.7333,80.87,29,13,8.57
123,Tilichiki,RU,2022-02-11 02:54:44,60.4667,166.1,-5.51,74,5,7.05
124,Jiuquan,CN,2022-02-11 02:54:44,39.7432,98.5174,25.83,55,100,3.31
125,Victoria,HK,2022-02-11 02:52:14,22.2855,114.1577,72.03,77,42,8.01
126,Rumphi,MW,2022-02-11 02:54:45,-11.0186,33.8575,64.15,99,100,2.21
127,Salalah,OM,2022-02-11 02:54:45,17.0151,54.0924,66.81,72,22,3.4
128,Abnub,EG,2022-02-11 02:54:45,27.2696,31.1511,47.8,63,2,7.05
129,Khatanga,RU,2022-02-11 02:54:46,71.9667,102.5,-4.88,89,15,13.09
130,Verkhnevilyuysk,RU,2022-02-11 02:54:46,63.4453,120.3167,-17.64,94,39,3.02
131,Chunskiy,RU,2022-02-11 02:54:46,56.0815,99.6342,-12.05,94,59,2.21
132,Khorixas,NA,2022-02-11 02:54:47,-20.3667,14.9667,69.82,81,100,9.82
133,Buala,SB,2022-02-11 02:54:47,-8.145,159.5921,82.8,81,80,11.27
134,Codrington,AU,2022-02-11 02:54:47,-38.2667,141.9667,66.72,48,98,15.84
135,Bauchi,NG,2022-02-11 02:54:48,10.5,10.0,57.7,20,6,4.27
136,Geraldton,AU,2022-02-11 02:54:48,-28.7667,114.6,95.41,28,5,16.11
137,Barrow,US,2022-02-11 02:51:13,71.2906,-156.7887,-16.58,69,100,9.22
138,Arica,CL,2022-02-11 02:54:48,-18.475,-70.3042,68.23,68,0,0.0
139,Mayo,US,2022-02-11 02:54:49,38.8876,-76.5119,46.94,63,0,3.44
140,El Fuerte,MX,2022-02-11 02:54:49,26.4189,-108.6194,65.41,47,0,3.71
141,Zyryanovsk,KZ,2022-02-11 02:54:49,49.7386,84.2719,-11.47,99,97,1.48
142,Khasan,RU,2022-02-11 02:54:50,42.4308,130.6434,30.63,80,95,5.59
143,Sault Sainte Marie,CA,2022-02-11 02:51:23,46.5168,-84.3333,21.49,73,100,6.91
144,Qaqortoq,GL,2022-02-11 02:54:50,60.7167,-46.0333,15.35,65,92,6.93
145,Macau,MO,2022-02-11 02:54:50,22.2006,113.5461,71.78,77,20,9.22
146,Santiago De Chuco,PE,2022-02-11 02:54:50,-8.15,-78.1833,50.49,89,100,1.83
147,Bengkulu,ID,2022-02-11 02:54:51,-3.8004,102.2655,81.25,60,100,2.8
148,Zhuhai,CN,2022-02-11 02:54:51,22.2769,113.5678,71.78,77,20,9.22
149,Ahuimanu,US,2022-02-11 02:54:51,21.4447,-157.8378,79.74,75,0,6.91
150,San Patricio,US,2022-02-11 02:54:52,28.017,-97.5169,58.86,68,100,6.93
151,Thompson,CA,2022-02-11 02:54:52,55.7435,-97.8558,-18.24,69,0,11.5
152,Valdivia,CL,2022-02-11 02:54:52,-39.8142,-73.2459,57.29,60,0,3.85
153,Sokoni,TZ,2022-02-11 02:54:53,-6.4333,39.55,79.75,79,100,9.89
154,Juneau,US,2022-02-11 02:50:58,58.3019,-134.4197,35.6,85,75,3.44
155,Palauig,PH,2022-02-11 02:54:53,15.435,119.9045,83.84,57,99,5.86
156,Castro,BR,2022-02-11 02:54:53,-24.7911,-50.0119,58.98,97,2,5.5
157,Sao Joao Da Barra,BR,2022-02-11 02:54:54,-21.6403,-41.0511,71.64,97,100,6.93
158,Ust-Kuyga,RU,2022-02-11 02:54:54,70.0167,135.6,-15.29,97,100,7.74
159,Kathmandu,NP,2022-02-11 02:54:54,27.7167,85.3167,48.42,81,20,0.0
160,Yellowknife,CA,2022-02-11 02:54:54,62.456,-114.3525,-17.45,69,100,8.05
161,Bonavista,CA,2022-02-11 02:54:55,48.6499,-53.1147,32.11,82,43,16.4
162,Marawi,PH,2022-02-11 02:54:55,7.9986,124.2928,72.64,81,100,4.83
163,Ancud,CL,2022-02-11 02:54:55,-41.8697,-73.8203,51.33,73,8,9.82
164,Atherton,GB,2022-02-11 02:54:56,53.5237,-2.4935,41.43,88,11,4.0
165,Kumano,JP,2022-02-11 02:54:56,34.3442,132.5894,47.35,60,23,2.66
166,Belousovka,KZ,2022-02-11 02:54:56,50.1339,82.5239,-26.55,75,100,2.24
167,Sola,VU,2022-02-11 02:54:56,-13.8833,167.55,81.55,79,100,19.77
168,Launceston,AU,2022-02-11 02:52:18,-41.45,147.1667,76.6,33,40,9.22
169,Bougouni,ML,2022-02-11 02:54:57,11.417,-7.479,73.85,12,3,7.43
170,Zverinogolovskoye,RU,2022-02-11 02:54:57,54.4586,64.8542,4.35,90,100,12.91
171,Touros,BR,2022-02-11 02:54:57,-5.1989,-35.4608,79.7,78,11,8.86
172,San Angelo,US,2022-02-11 02:54:58,31.4638,-100.437,57.88,30,0,5.01
173,Manggar,ID,2022-02-11 02:54:58,-2.8833,108.2667,80.82,78,100,8.66
174,Umea,SE,2022-02-11 02:54:58,63.8284,20.2597,24.73,74,0,11.5
175,Aripuana,BR,2022-02-11 02:51:30,-9.1667,-60.6333,73.2,98,92,0.92
176,Namibe,AO,2022-02-11 02:54:59,-15.1961,12.1522,72.3,90,100,5.93
177,Ahipara,NZ,2022-02-11 02:54:59,-35.1667,173.1667,77.97,87,63,10.49
178,Mataundh,IN,2022-02-11 02:54:59,25.45,80.15,58.73,52,0,7.25
179,Vondrozo,MG,2022-02-11 02:55:00,-22.8167,47.2833,67.14,98,61,1.97
180,Kushima,JP,2022-02-11 02:55:00,31.4583,131.2333,51.84,51,5,3.51
181,Lastoursville,GA,2022-02-11 02:55:00,-0.8143,12.7287,75.02,85,100,2.06
182,Saint-Philippe,RE,2022-02-11 02:55:01,-21.3585,55.7679,74.79,78,21,5.44
183,Georgetown,MY,2022-02-11 02:50:04,5.4112,100.3354,82.33,87,40,1.99
184,Coihaique,CL,2022-02-11 02:53:09,-45.5752,-72.0662,49.95,46,0,8.05
185,Nome,US,2022-02-11 02:55:01,64.5011,-165.4064,-24.7,98,7,4.74
186,Caravelas,BR,2022-02-11 02:55:01,-17.7125,-39.2481,74.86,91,5,5.03
187,Babati,TZ,2022-02-11 02:55:02,-4.2167,35.75,62.98,84,79,3.36
188,Keti Bandar,PK,2022-02-11 02:55:02,24.1447,67.4497,67.05,59,0,6.4
189,Arraial Do Cabo,BR,2022-02-11 02:55:03,-22.9661,-42.0278,71.92,92,100,2.17
190,Gazimurskiy Zavod,RU,2022-02-11 02:55:03,51.5461,118.3266,2.71,89,100,2.91
191,Sibolga,ID,2022-02-11 02:55:03,1.7427,98.7792,83.98,62,94,2.77
192,Emerald,AU,2022-02-11 02:55:04,-23.5333,148.1667,91.35,37,0,4.61
193,Hami,CN,2022-02-11 02:55:04,42.8,93.45,26.62,65,100,7.54
194,Paciran,ID,2022-02-11 02:55:04,-6.8767,112.3761,81.7,79,100,5.66
195,Longyearbyen,SJ,2022-02-11 02:51:10,78.2186,15.6401,19.24,86,75,3.44
196,Tessalit,ML,2022-02-11 02:55:05,20.1986,1.0114,60.04,23,47,11.3
197,Faanui,PF,2022-02-11 02:55:05,-16.4833,-151.75,81.72,73,35,13.87
198,Bandarbeyla,SO,2022-02-11 02:55:05,9.4942,50.8122,72.52,69,94,13.69
199,Leninsk,RU,2022-02-11 02:55:06,48.7119,45.1994,35.46,94,99,13.29
200,Alugan,PH,2022-02-11 02:55:06,12.2188,125.4808,78.55,87,100,14.41
201,Serenje,ZM,2022-02-11 02:55:06,-13.2325,30.2352,60.19,97,100,2.82
202,Yinchuan,CN,2022-02-11 02:55:06,38.4681,106.2731,28.27,59,100,2.08
203,Aimores,BR,2022-02-11 02:52:17,-19.4958,-41.0639,71.78,97,100,2.86
204,Khani,GE,2022-02-11 02:55:07,41.9563,42.9566,27.97,89,84,4.65
205,Cam Ranh,VN,2022-02-11 02:55:07,11.9214,109.1591,82.36,65,40,12.66
206,Timizart,DZ,2022-02-11 02:55:07,36.8,4.2667,46.62,68,66,4.54
207,Cayenne,GF,2022-02-11 02:50:17,4.9333,-52.3333,77.09,88,100,1.01
208,Bubaque,GW,2022-02-11 02:55:08,11.2833,-15.8333,78.17,77,1,6.98
209,Ixtapa,MX,2022-02-11 02:55:08,20.7,-105.2,68.23,80,2,2.37
210,Borshchiv,UA,2022-02-11 02:55:08,48.8033,26.0435,39.15,84,32,4.97
211,Puerto Ayora,EC,2022-02-11 02:55:09,-0.7393,-90.3518,74.55,93,84,1.01
212,Gazanjyk,TM,2022-02-11 02:55:09,39.2446,55.5154,45.5,77,100,5.95
213,Sarakhs,IR,2022-02-11 02:55:09,36.5449,61.1577,52.23,33,61,9.22
214,Jojoima,SL,2022-02-11 02:55:09,7.8792,-10.7878,67.84,97,2,1.45
215,Merauke,ID,2022-02-11 02:55:10,-8.4667,140.3333,86.95,58,54,3.02
216,Ponta Do Sol,PT,2022-02-11 02:55:10,32.6667,-17.1,66.7,56,100,5.35
217,Flin Flon,CA,2022-02-11 02:53:50,54.7682,-101.865,-8.09,91,100,11.77
218,Kieta,PG,2022-02-11 02:55:10,-6.2167,155.6333,83.61,78,96,7.02
219,Lebu,CL,2022-02-11 02:55:11,-37.6167,-73.65,56.8,76,0,22.32
220,Maceio,BR,2022-02-11 02:54:03,-9.6658,-35.7353,76.44,88,20,2.3
221,Natal,BR,2022-02-11 02:55:11,-5.795,-35.2094,80.82,78,20,5.75
222,Chokurdakh,RU,2022-02-11 02:55:11,70.6333,147.9167,-25.44,90,72,9.84
223,Busok,PH,2022-02-11 02:55:12,6.5061,124.5989,88.11,61,84,3.4
224,Banda Aceh,ID,2022-02-11 02:55:12,5.5577,95.3222,83.07,70,30,2.93
225,Padilla,CO,2022-02-11 02:55:12,3.2204,-76.3139,71.17,96,100,1.21
226,La Ronge,CA,2022-02-11 02:55:13,55.1001,-105.2842,-3.75,71,0,10.36
227,Seoul,KR,2022-02-11 02:54:30,37.5683,126.9778,43.21,56,0,2.3
228,Benghazi,LY,2022-02-11 02:55:14,32.1167,20.0667,53.96,67,0,7.83
229,Weston,US,2022-02-11 02:55:15,26.1004,-80.3998,72.01,83,0,1.99
230,Chengde,CN,2022-02-11 02:55:16,40.9725,117.9361,30.74,34,87,5.41
231,Kastamonu,TR,2022-02-11 02:55:16,41.5,33.6667,24.12,95,25,0.54
232,Ambon,ID,2022-02-11 02:55:16,-3.6954,128.1814,80.74,89,40,2.3
233,Sarangani,PH,2022-02-11 02:55:17,5.4033,125.4636,81.77,79,43,19.26
234,Epe,NG,2022-02-11 02:55:17,6.5841,3.9834,74.93,95,15,1.57
235,Yatou,CN,2022-02-11 02:55:17,37.15,122.3833,46.87,44,19,5.48
236,Karata,RU,2022-02-11 02:55:18,42.5949,46.3393,23.09,76,4,4.74
237,Huangnihe,CN,2022-02-11 02:55:18,43.5583,128.0239,27.43,81,100,3.94
238,Smithers,CA,2022-02-11 02:54:06,54.7804,-127.1743,37.72,48,0,6.91
239,Dingle,PH,2022-02-11 02:55:18,10.9995,122.6711,81.07,74,99,14.05
240,Tiznit,MA,2022-02-11 02:55:19,29.5833,-9.5,55.78,28,19,3.69
241,Kruisfontein,ZA,2022-02-11 02:55:19,-34.0033,24.7314,60.3,90,0,3.6
242,Airai,TL,2022-02-11 02:55:19,-8.9266,125.4092,70.12,76,100,1.54
243,Sioux Lookout,CA,2022-02-11 02:50:45,50.1001,-91.917,16.18,86,100,6.91
244,Ekhabi,RU,2022-02-11 02:55:20,53.5102,142.9671,26.92,92,100,8.32
245,Sambava,MG,2022-02-11 02:55:20,-14.2667,50.1667,74.17,91,22,4.52
246,Karratha,AU,2022-02-11 02:55:20,-20.7377,116.8463,90.86,55,32,17.87
247,Gushikawa,JP,2022-02-11 02:55:20,26.3544,127.8686,66.2,55,0,6.91
248,Port Macquarie,AU,2022-02-11 02:55:21,-31.4333,152.9167,79.9,53,44,14.72
249,Srednekolymsk,RU,2022-02-11 02:55:21,67.45,153.6833,-24.29,93,24,2.68
250,Naze,JP,2022-02-11 02:55:21,28.3667,129.4833,59.92,56,44,7.78
251,Nemuro,JP,2022-02-11 02:55:22,43.3236,145.575,27.03,70,80,5.73
252,Oussouye,SN,2022-02-11 02:55:22,12.485,-16.5469,73.35,42,11,2.42
253,Spasskoye,RU,2022-02-11 02:55:22,44.6108,132.7969,18.41,92,100,3.18
254,Narsaq,GL,2022-02-11 02:55:23,60.9167,-46.05,12.49,61,92,7.92
255,Saint Anthony,US,2022-02-11 02:54:26,45.0205,-93.218,41.32,86,100,14.97
256,Sunland Park,US,2022-02-11 02:55:23,31.7965,-106.58,56.62,22,0,3.44
257,Morgan City,US,2022-02-11 02:53:01,29.6994,-91.2068,55.0,57,0,0.0
258,Esil,KZ,2022-02-11 02:55:23,51.9556,66.4042,7.02,92,100,14.99
259,Lavrentiya,RU,2022-02-11 02:55:24,65.5833,-171.0,-26.39,98,51,4.83
260,Necochea,AR,2022-02-11 02:55:24,-38.5473,-58.7368,65.03,91,100,11.3
261,Vuktyl,RU,2022-02-11 02:55:24,63.8567,57.3094,18.55,80,100,11.18
262,Marsh Harbour,BS,2022-02-11 02:55:25,26.5412,-77.0636,72.9,78,98,12.93
263,Sisophon,KH,2022-02-11 02:55:25,13.5859,102.9737,88.27,49,79,7.78
264,Portobelo,PA,2022-02-11 02:55:25,9.55,-79.65,77.86,84,25,11.07
265,Xining,CN,2022-02-11 02:55:25,36.6167,101.7667,19.76,77,75,2.68
266,Gizo,SB,2022-02-11 02:55:26,-8.103,156.8419,81.66,78,69,8.37
267,Domoni,KM,2022-02-11 02:55:26,-12.2569,44.5319,78.46,85,100,4.43
268,Haines Junction,CA,2022-02-11 02:55:26,60.7522,-137.5108,-0.8,100,10,3.74
269,Cockburn Town,TC,2022-02-11 02:55:27,21.4612,-71.1419,77.97,79,0,19.26
270,Ellisras,ZA,2022-02-11 02:55:27,-23.6649,27.7443,68.13,49,1,4.29
271,Bethel,US,2022-02-11 02:52:24,41.3712,-73.414,42.93,59,0,6.91
272,Paraiso,CR,2022-02-11 02:55:27,9.8383,-83.8656,65.95,95,76,4.32
273,Williams Lake,CA,2022-02-11 02:55:09,52.1415,-122.1445,40.57,35,20,8.05
274,Nizhniy Ingash,RU,2022-02-11 02:55:28,56.2,96.53,-8.37,94,69,0.98
275,Moen,NO,2022-02-11 02:55:28,69.1304,18.6123,30.27,93,100,8.05
276,Batemans Bay,AU,2022-02-11 02:55:28,-35.7167,150.1833,74.19,74,100,9.57
277,Ilam,NP,2022-02-11 02:55:28,26.9167,87.9167,52.23,76,80,2.28
278,Edgewater,US,2022-02-11 02:55:29,28.9889,-80.9023,57.0,70,21,4.76
279,Mnogovershinnyy,RU,2022-02-11 02:55:29,53.9353,139.9242,15.75,92,100,0.96
280,Mehamn,NO,2022-02-11 02:55:29,71.0357,27.8492,26.69,94,99,10.89
281,Cabedelo,BR,2022-02-11 02:55:30,-6.9811,-34.8339,81.27,77,18,10.65
282,Summerville,US,2022-02-11 02:55:07,33.0185,-80.1757,52.9,63,75,8.05
283,Bereda,ES,2022-02-11 02:55:30,43.2686,-7.5406,48.15,100,84,3.31
284,Fortuna,US,2022-02-11 02:55:30,40.5982,-124.1573,59.92,74,0,0.0
285,Mae Hong Son,TH,2022-02-11 02:55:31,19.3003,97.9685,60.94,77,77,0.0
286,Belmonte,BR,2022-02-11 02:52:12,-15.8631,-38.8828,79.3,85,0,6.04
287,Chifeng,CN,2022-02-11 02:55:31,42.2683,118.9636,23.79,35,3,5.48
288,Venice,US,2022-02-11 02:53:02,27.0998,-82.4543,57.97,82,0,5.75
289,Bima,ID,2022-02-11 02:55:31,-8.4667,118.7167,85.86,73,96,1.41
290,San Quintin,MX,2022-02-11 02:55:32,30.4833,-115.95,64.2,34,0,3.15
291,Luderitz,NA,2022-02-11 02:55:32,-26.6481,15.1594,68.52,70,32,12.93
292,Chitral,PK,2022-02-11 02:55:32,35.8462,71.7858,27.73,44,47,9.78
293,Southbridge,US,2022-02-11 02:55:33,42.0751,-72.0334,39.22,65,1,5.66
294,Dilla,ET,2022-02-11 02:55:33,6.41,38.31,61.72,67,8,3.71
295,Boende,CD,2022-02-11 02:55:33,-0.2167,20.8667,74.32,63,100,1.9
296,West Bay,KY,2022-02-11 02:55:33,19.3667,-81.4167,78.01,84,20,2.3
297,Obigarm,TJ,2022-02-11 02:55:34,38.7173,69.7088,18.19,74,43,9.57
298,Gazli,UZ,2022-02-11 02:55:34,40.1333,63.45,45.41,47,100,9.24
299,Husavik,IS,2022-02-11 02:55:34,66.0449,-17.3389,31.91,74,35,14.72
300,Belyy Yar,RU,2022-02-11 02:55:35,53.6039,91.3903,-25.15,73,85,0.0
301,Asifabad,IN,2022-02-11 02:55:35,19.3667,79.2833,67.55,39,23,7.52
302,Bambous Virieux,MU,2022-02-11 02:55:35,-20.3428,57.7575,76.21,94,40,2.3
303,Butembo,CD,2022-02-11 02:55:36,0.15,29.2833,59.79,60,69,3.33
304,Seymchan,RU,2022-02-11 02:55:36,62.8833,152.4333,-27.53,92,94,1.45
305,Esperance,AU,2022-02-11 02:55:36,-33.8667,121.9,102.04,27,24,21.56
306,Kahului,US,2022-02-11 02:55:36,20.8947,-156.47,78.06,80,90,5.99
307,Acari,PE,2022-02-11 02:55:37,-15.4311,-74.6158,72.37,77,52,3.6
308,Celestun,MX,2022-02-11 02:55:37,20.8667,-90.4,70.25,82,98,11.81
309,Port Hardy,CA,2022-02-11 02:52:34,50.6996,-127.4199,44.78,87,75,10.36
310,Sandovo,RU,2022-02-11 02:55:37,58.4602,36.4128,28.63,96,99,8.63
311,Kalmunai,LK,2022-02-11 02:55:38,7.4167,81.8167,79.52,77,94,4.27
312,Ulaangom,MN,2022-02-11 02:55:38,49.9811,92.0667,-21.59,95,96,0.65
313,Port Hawkesbury,CA,2022-02-11 02:55:38,45.6169,-61.3485,36.18,88,0,4.61
314,Vidim,RU,2022-02-11 02:55:38,56.4088,103.1106,-12.53,94,56,2.21
315,Kindu,CD,2022-02-11 02:55:39,-2.95,25.95,69.12,91,97,2.51
316,Samarai,PG,2022-02-11 02:55:39,-10.6167,150.6667,84.36,57,78,16.55
317,Ciudad Bolivar,VE,2022-02-11 02:55:39,8.1222,-63.5497,78.69,63,9,15.46
318,Mamlyutka,KZ,2022-02-11 02:55:40,54.9375,68.5394,-16.58,92,8,11.1
319,Chara,RU,2022-02-11 02:55:40,56.9064,118.2631,-16.19,92,95,1.86
320,Mahebourg,MU,2022-02-11 02:55:40,-20.4081,57.7,76.24,94,40,2.3
321,Eureka,US,2022-02-11 02:51:37,40.8021,-124.1637,60.19,75,0,1.01
322,Disna,BY,2022-02-11 02:55:41,55.568,28.1971,33.13,93,99,9.13
323,Dawlatabad,AF,2022-02-11 02:55:41,36.4141,64.9053,46.81,47,100,3.62
324,Half Moon Bay,US,2022-02-11 02:55:29,37.4636,-122.4286,67.96,50,0,3.44
325,Yerbogachen,RU,2022-02-11 02:55:41,61.2767,108.0108,-7.2,93,95,4.92
326,Myitkyina,MM,2022-02-11 02:55:42,25.3833,97.4,69.06,51,71,4.16
327,Pandan,PH,2022-02-11 02:55:42,14.0453,124.1694,80.6,76,96,13.67
328,Port Hedland,AU,2022-02-11 02:55:42,-20.3167,118.5667,93.25,55,40,14.97
329,Da Nang,VN,2022-02-11 02:53:31,16.0678,108.2208,82.38,69,40,2.3
330,Broome,US,2022-02-11 02:55:43,42.2506,-75.833,34.81,74,94,3.0
331,Itoman,JP,2022-02-11 02:55:43,26.1247,127.6694,66.97,53,40,10.36
332,Valparaiso,CL,2022-02-11 02:52:13,-33.0393,-71.6273,65.48,73,100,5.75
333,Orange Cove,US,2022-02-11 02:55:43,36.6244,-119.3137,66.56,48,0,4.25
334,Muroto,JP,2022-02-11 02:55:43,33.2833,134.15,55.44,53,23,5.88
335,Gurupa,BR,2022-02-11 02:55:44,-1.405,-51.64,72.9,98,100,3.0
336,Sao Filipe,CV,2022-02-11 02:55:44,14.8961,-24.4956,77.0,60,98,4.9
337,Bonoua,CI,2022-02-11 02:55:44,5.2741,-3.595,82.02,95,5,2.24
338,Isangel,VU,2022-02-11 02:55:45,-19.55,169.2667,86.11,79,75,11.5
339,Helena,US,2022-02-11 02:55:45,46.5927,-112.0361,41.25,64,93,8.61
340,Straumen,NO,2022-02-11 02:55:45,63.8709,11.2999,31.95,65,77,15.32
341,Maine-Soroa,NE,2022-02-11 02:55:45,13.2114,12.0241,59.58,30,7,10.18
342,Temirtau,KZ,2022-02-11 02:55:46,50.0544,72.9483,-18.15,100,73,7.23
343,Desbiens,CA,2022-02-11 02:55:46,48.4178,-71.9495,32.72,84,100,12.62
344,Arlit,NE,2022-02-11 02:55:46,18.7369,7.3853,61.02,23,1,7.52
345,Bud,US,2022-02-11 02:55:47,39.447,-86.1758,31.24,87,98,6.67
346,Chernyshevskiy,RU,2022-02-11 02:55:47,63.0128,112.4714,-10.14,87,98,2.04
347,Kuito,AO,2022-02-11 02:53:01,-12.3833,16.9333,55.35,96,81,4.61
348,Westport,US,2022-02-11 02:50:59,41.1415,-73.3579,46.38,58,0,6.91
349,Paso De Los Toros,UY,2022-02-11 02:55:48,-32.8167,-56.5167,69.91,67,0,15.48
350,Aberdeen,GB,2022-02-11 02:55:49,57.1437,-2.0981,33.21,81,9,11.5
351,Soe,ID,2022-02-11 02:55:49,-9.8607,124.284,75.67,80,93,3.2
352,Brawley,US,2022-02-11 02:55:50,32.9787,-115.5303,75.18,21,0,7.81
353,Great Yarmouth,GB,2022-02-11 02:55:50,52.6083,1.7305,38.95,80,13,19.55
354,Waterloo,CA,2022-02-11 02:55:51,43.4668,-80.5164,30.83,74,100,13.8
355,Iqaluit,CA,2022-02-11 02:55:51,63.7506,-68.5145,1.13,77,75,2.3
356,Ardakan,IR,2022-02-11 02:55:51,32.31,54.0175,50.38,24,0,4.12
357,Stokmarknes,NO,2022-02-11 02:55:51,68.5646,14.9108,31.5,59,100,17.4
358,Hay River,CA,2022-02-11 02:55:52,60.8156,-115.7999,-4.02,77,75,3.44
359,Creel,MX,2022-02-11 02:55:52,27.75,-107.6333,39.07,42,49,5.57
360,Tomiya,JP,2022-02-11 02:55:52,38.3931,140.8861,34.38,73,62,5.26
361,Yar-Sale,RU,2022-02-11 02:55:53,66.8333,70.8333,5.13,89,87,17.07
362,Taltal,CL,2022-02-11 02:55:53,-25.4,-70.4833,66.47,79,0,3.85
363,Hasaki,JP,2022-02-11 02:55:53,35.7333,140.8333,43.29,62,100,23.2
364,Yulara,AU,2022-02-11 02:55:53,-25.2406,130.9889,85.84,21,0,11.5
365,Cabo San Lucas,MX,2022-02-11 02:55:54,22.8909,-109.9124,67.14,64,94,4.47
366,Virginia Beach,US,2022-02-11 02:51:07,36.8529,-75.978,54.01,51,21,1.01
367,El Cobre,CU,2022-02-11 02:55:54,20.0489,-75.9469,72.5,86,9,0.63
368,Miri,MY,2022-02-11 02:55:54,4.4148,114.0089,84.34,79,20,4.61
369,Havre-Saint-Pierre,CA,2022-02-11 02:55:55,50.2334,-63.5986,30.79,100,100,5.75
370,Krasnoselkup,RU,2022-02-11 02:55:55,65.7,82.4667,-10.55,86,79,10.29
371,Juruti,BR,2022-02-11 02:55:55,-2.1522,-56.0922,74.25,95,100,2.84
372,Faya,SA,2022-02-11 02:55:56,18.3851,42.4509,52.32,90,11,3.38
373,Coquimbo,CL,2022-02-11 02:53:16,-29.9533,-71.3436,64.13,88,100,6.91
374,Kushiro,JP,2022-02-11 02:55:56,42.975,144.3747,25.75,63,20,4.61
375,Khorramabad,IR,2022-02-11 02:55:56,33.4878,48.3558,40.17,100,100,5.08
376,Nguruka,TZ,2022-02-11 02:55:57,-5.1092,31.0419,64.83,95,100,2.04
377,Alice Springs,AU,2022-02-11 02:55:57,-23.7,133.8833,83.75,24,0,11.5
378,Champerico,GT,2022-02-11 02:55:57,14.3,-91.9167,80.04,71,0,7.27
379,Ulladulla,AU,2022-02-11 02:55:58,-35.35,150.4667,72.5,84,100,11.95
380,Rio Gallegos,AR,2022-02-11 02:52:42,-51.6226,-69.2181,46.45,49,0,24.16
381,Adrar,MR,2022-02-11 02:55:58,20.5022,-10.0711,60.1,21,70,12.01
382,Wanaka,NZ,2022-02-11 02:55:58,-44.7,169.15,75.27,50,56,3.85
383,Cintalapa,MX,2022-02-11 02:55:59,16.6951,-93.7272,61.39,98,19,3.53
384,Bathsheba,BB,2022-02-11 02:55:59,13.2167,-59.5167,77.61,69,40,18.41
385,Arys,KZ,2022-02-11 02:55:59,42.4252,68.795,35.82,49,95,5.48
386,Makakilo City,US,2022-02-11 02:56:00,21.3469,-158.0858,78.55,58,100,4.61
387,Singkang,MY,2022-02-11 02:56:00,2.1006,102.7994,76.89,84,100,6.29
388,Mykhaylivka,UA,2022-02-11 02:56:00,47.2724,35.2224,39.47,84,100,9.42
389,Ormara,PK,2022-02-11 02:56:01,25.2088,64.6357,67.91,47,0,1.83
390,Vila Franca Do Campo,PT,2022-02-11 02:56:01,37.7167,-25.4333,59.2,74,96,5.95
391,Mount Hagen,PG,2022-02-11 02:56:01,-5.8581,144.2274,72.36,64,40,11.5
392,Calama,CL,2022-02-11 02:56:01,-22.4667,-68.9333,54.09,30,4,8.05
393,Vagur,FO,2022-02-11 02:56:02,61.4732,-6.8119,40.66,61,99,26.8
394,Tiksi,RU,2022-02-11 02:56:02,71.6872,128.8694,-11.04,92,100,13.22
395,Moron,AR,2022-02-11 02:56:02,-34.6534,-58.6198,76.98,80,0,7.05
396,Omsukchan,RU,2022-02-11 02:56:03,62.5333,155.8,-13.14,80,76,4.09
397,Dakar,SN,2022-02-11 02:56:03,14.6937,-17.4441,85.08,42,47,17.85
398,Matamoros,MX,2022-02-11 02:53:12,25.5333,-103.25,58.1,28,100,4.43
399,Mount Isa,AU,2022-02-11 02:56:03,-20.7333,139.5,98.37,19,0,8.05
400,Graaff-Reinet,ZA,2022-02-11 02:56:04,-32.2522,24.5308,60.93,89,60,1.9
401,Tehachapi,US,2022-02-11 02:56:04,35.1322,-118.449,59.85,36,0,1.99
402,Sisimiut,GL,2022-02-11 02:56:04,66.9395,-53.6735,10.53,76,100,10.63
403,Trinidad,BO,2022-02-11 02:51:30,-14.8333,-64.9,75.38,87,36,4.45
404,Lively,CA,2022-02-11 02:56:05,46.4334,-81.1498,22.12,98,85,2.86
405,Grand Gaube,MU,2022-02-11 02:55:08,-20.0064,57.6608,76.37,79,5,5.1
406,Rabo De Peixe,PT,2022-02-11 02:56:05,37.8,-25.5833,58.28,86,40,6.91
407,Simbahan,PH,2022-02-11 02:56:06,6.3032,120.5836,81.45,76,100,4.34
408,Berdigestyakh,RU,2022-02-11 02:56:06,62.0989,126.6992,-16.69,92,51,3.98
409,Lasa,IT,2022-02-11 02:56:06,46.6166,10.7002,32.61,77,22,2.28
410,Berzasca,RO,2022-02-11 02:56:07,44.6476,21.9526,39.24,91,2,3.4
411,Nadym,RU,2022-02-11 02:56:07,65.5333,72.5167,-1.53,82,0,17.13
412,Gornopravdinsk,RU,2022-02-11 02:56:07,60.05,69.9,-3.78,92,6,8.55
413,Wangaratta,AU,2022-02-11 02:56:08,-36.3667,146.3333,85.46,44,0,5.75
414,Hirara,JP,2022-02-11 02:56:08,24.8,125.2833,66.47,72,75,16.11
415,Aromashevo,RU,2022-02-11 02:56:08,56.8602,68.6375,-11.25,91,5,9.73
416,Cedar City,US,2022-02-11 02:56:09,37.6775,-113.0619,20.26,69,1,4.92
417,Najran,SA,2022-02-11 02:56:09,17.4924,44.1277,54.25,32,5,0.43
418,Axim,GH,2022-02-11 02:56:09,4.8699,-2.2405,77.41,94,6,4.68
419,Bianzhuang,CN,2022-02-11 02:56:09,34.8486,118.0447,46.47,52,100,6.58
420,Henties Bay,NA,2022-02-11 02:56:10,-22.116,14.2845,70.86,89,79,8.79
421,Talaya,RU,2022-02-11 02:56:10,61.3833,152.75,-20.49,84,92,0.47
422,Vorukh,TJ,2022-02-11 02:56:10,39.8494,70.5838,31.53,51,99,9.22
423,Quchan,IR,2022-02-11 02:56:11,37.106,58.5095,38.39,47,100,1.7
424,North Myrtle Beach,US,2022-02-11 02:52:47,33.816,-78.68,52.11,79,0,10.36
425,Dhaulpur,IN,2022-02-11 02:56:11,26.7,77.9,56.46,51,0,4.34
426,Roshchino,RU,2022-02-11 02:56:12,60.2519,29.6085,31.75,94,63,10.16
427,Norman Wells,CA,2022-02-11 02:56:12,65.282,-126.8329,-12.96,70,20,5.75
428,Vostok,RU,2022-02-11 02:56:12,46.4856,135.8833,21.79,81,100,1.83
429,Yeppoon,AU,2022-02-11 02:56:12,-23.1333,150.7333,85.78,54,0,13.91
430,Comodoro Rivadavia,AR,2022-02-11 02:56:13,-45.8667,-67.5,51.66,37,0,3.44
431,Islamkot,PK,2022-02-11 02:56:13,24.6997,70.177,63.52,31,0,8.72
432,Sao Paulo De Olivenca,BR,2022-02-11 02:56:13,-3.3783,-68.8725,74.07,91,100,0.25
433,Barabai,ID,2022-02-11 02:56:14,-2.5833,115.3833,88.05,58,97,2.82
434,Gainesville,US,2022-02-11 02:56:14,29.6516,-82.3248,50.95,70,59,2.95
435,Kuryk,KZ,2022-02-11 02:56:14,43.2,51.65,35.17,71,46,10.49
436,Vila Do Maio,CV,2022-02-11 02:56:15,15.1333,-23.2167,75.99,75,99,12.71
437,Novikovo,RU,2022-02-11 02:56:15,51.1537,37.8879,29.79,93,100,8.12
438,Kodiak,US,2022-02-11 02:56:15,57.79,-152.4072,35.11,75,100,34.52
439,Port Lincoln,AU,2022-02-11 02:56:15,-34.7333,135.8667,68.99,56,6,12.84
440,Uray,RU,2022-02-11 02:56:16,60.1247,64.7758,-2.02,86,35,11.9
441,Bridgend,GB,2022-02-11 02:56:16,51.5058,-3.5772,42.84,87,3,1.99
442,Olafsvik,IS,2022-02-11 02:56:16,64.8945,-23.7142,34.95,61,98,13.78
443,Hecun,CN,2022-02-11 02:56:17,36.5333,114.1111,44.69,35,100,3.09
444,Taldan,RU,2022-02-11 02:56:17,53.6667,124.8,1.2,61,100,4.5
445,Zhangye,CN,2022-02-11 02:56:17,38.9342,100.4517,27.86,36,42,8.16
446,Seminole,US,2022-02-11 02:56:17,28.7086,-81.2081,59.22,77,35,4.81
447,Torbat-E Jam,IR,2022-02-11 02:56:18,35.244,60.6225,43.32,45,6,2.57
448,Usinsk,RU,2022-02-11 02:56:18,65.9939,57.5281,23.14,77,100,21.7
449,Akhmeta,GE,2022-02-11 02:56:18,42.0311,45.2075,36.12,74,87,5.35
450,Yumen,CN,2022-02-11 02:56:19,40.2833,97.2,26.74,44,89,20.69
451,Soc Trang,VN,2022-02-11 02:56:19,9.6033,105.98,80.56,54,100,16.6
452,Povenets,RU,2022-02-11 02:56:19,62.8487,34.8262,27.7,92,100,7.61
453,Leshukonskoye,RU,2022-02-11 02:56:20,64.8989,45.7622,20.19,93,100,10.51
454,Kiunga,PG,2022-02-11 02:56:20,-6.1219,141.2906,73.51,99,100,1.77
455,Hervey Bay,AU,2022-02-11 02:53:03,-25.2986,152.8535,88.03,57,0,22.64
456,Markova,UA,2022-02-11 02:56:21,48.6758,24.4138,34.83,89,20,5.44
457,Muros,ES,2022-02-11 02:56:22,42.7762,-9.0603,51.98,92,30,7.96
458,Shahi,IN,2022-02-11 02:56:22,28.55,79.3167,50.95,76,0,8.99
459,Nenjiang,CN,2022-02-11 02:56:23,49.1833,125.2167,8.33,89,100,9.13
460,Auki,SB,2022-02-11 02:56:23,-8.7676,160.7034,80.94,83,93,8.55
461,Yarmouth,US,2022-02-11 02:56:23,41.7057,-70.2286,44.1,84,9,1.01
462,Lufilufi,WS,2022-02-11 02:56:24,-13.8745,-171.5986,82.18,80,18,13.6
463,Taoudenni,ML,2022-02-11 02:56:24,22.6783,-3.9836,57.67,34,1,10.76
464,Ilulissat,GL,2022-02-11 02:56:24,69.2167,-51.1,-6.02,84,100,5.01
465,Bara,NG,2022-02-11 02:56:25,10.3744,10.7288,62.98,18,40,8.05
466,Takoradi,GH,2022-02-11 02:56:25,4.8845,-1.7554,77.83,92,2,5.08
467,Yueyang,CN,2022-02-11 02:56:25,29.3333,113.0919,41.83,94,100,8.34
468,Constitucion,CL,2022-02-11 02:56:25,-35.3333,-72.4167,59.63,67,100,3.69
469,Sidi Ali,DZ,2022-02-11 02:56:26,36.0998,0.4206,47.53,82,31,2.01
470,Tarauaca,BR,2022-02-11 02:56:26,-8.1614,-70.7656,72.14,99,56,2.26
471,Merke,KZ,2022-02-11 02:56:26,42.8728,73.1786,31.68,70,99,5.23
472,Los Llanos De Aridane,ES,2022-02-11 02:56:27,28.6585,-17.9182,66.13,29,0,8.99
473,Estelle,US,2022-02-11 02:56:27,29.8458,-90.1067,55.99,62,63,5.99
474,Verdun,FR,2022-02-11 02:56:27,49.25,5.3333,37.69,89,100,11.32
475,Marsa Matruh,EG,2022-02-11 02:54:14,31.3525,27.2453,55.71,68,100,16.28
476,Saint-Augustin,CA,2022-02-11 02:56:28,51.226,-58.6502,28.38,96,100,11.03
477,Muncie,US,2022-02-11 02:56:28,40.1934,-85.3864,29.21,84,100,1.99
478,Sechura,PE,2022-02-11 02:56:28,-5.5569,-80.8222,73.78,67,100,10.11
479,Ugoofaaru,MV,2022-02-11 02:56:29,5.6667,73.0,80.91,77,24,9.06
480,Egvekinot,RU,2022-02-11 02:56:29,66.3167,-179.1667,-22.88,89,29,4.34
481,Ocumare Del Tuy,VE,2022-02-11 02:56:29,10.1165,-66.7761,78.93,97,26,3.98
482,Cidreira,BR,2022-02-11 02:56:29,-30.1811,-50.2056,74.25,81,17,18.88
483,Komsomolskiy,UZ,2022-02-11 02:56:30,40.4272,71.7189,35.02,80,100,4.61
484,Mount Gambier,AU,2022-02-11 02:54:25,-37.8333,140.7667,73.31,43,75,18.41
485,Portland,US,2022-02-11 02:54:13,45.5234,-122.6762,49.21,90,75,8.05
486,Puerto Colombia,CO,2022-02-11 02:56:30,10.9878,-74.9547,80.69,83,58,26.4
487,Broken Hill,AU,2022-02-11 02:56:30,-31.95,141.4333,78.51,29,2,19.57
488,Fuerte Olimpo,PY,2022-02-11 02:56:31,-21.0415,-57.8738,77.27,40,0,6.82
489,Alofi,NU,2022-02-11 02:56:31,-19.0595,-169.9187,85.89,66,2,12.66
490,Jinchang,CN,2022-02-11 02:56:31,38.4953,102.1739,28.29,46,11,1.43
491,Koroni,GR,2022-02-11 02:56:32,36.8,21.95,48.07,61,0,4.9
492,Lexington Park,US,2022-02-11 02:56:32,38.2668,-76.4538,45.64,70,75,1.01
493,Big Spring,US,2022-02-11 02:51:50,32.2504,-101.4787,57.15,28,0,1.01
494,Show Low,US,2022-02-11 02:56:32,34.2542,-110.0298,41.14,41,0,0.0
495,Cachoeira Do Sul,BR,2022-02-11 02:56:33,-30.0392,-52.8939,68.43,83,0,7.38
496,Jeremie,HT,2022-02-11 02:56:33,18.65,-74.1167,75.97,80,1,1.9
497,Cuiluan,CN,2022-02-11 02:56:33,47.72,128.648,14.38,86,100,4.83
498,Gafargaon,BD,2022-02-11 02:56:33,24.4333,90.5667,64.38,68,0,4.23
499,Male,MV,2022-02-11 02:56:34,4.1748,73.5089,80.55,83,75,10.36
500,Albion,US,2022-02-11 02:56:34,42.2431,-84.753,29.19,78,100,11.5
501,Beyneu,KZ,2022-02-11 02:56:34,45.3167,55.2,32.14,79,100,17.87
502,Santa Isabel Do Rio Negro,BR,2022-02-11 02:56:35,-0.4139,-65.0192,73.92,95,99,2.28
503,Zhaotong,CN,2022-02-11 02:56:35,27.3167,103.7167,35.29,67,81,6.13
504,Buluang,PH,2022-02-11 02:56:35,13.3068,123.3425,84.56,59,41,5.01
505,Pisco,PE,2022-02-11 02:54:55,-13.7,-76.2167,72.01,73,0,9.22
506,Banjar,ID,2022-02-11 02:56:36,-8.19,114.9675,84.06,64,99,2.91
507,Wattegama,LK,2022-02-11 02:56:36,6.7989,81.4808,74.32,77,99,3.53
508,Jacareacanga,BR,2022-02-11 02:56:36,-6.2222,-57.7528,72.55,97,93,1.79
509,Buin,CL,2022-02-11 02:56:37,-33.7333,-70.75,68.74,76,6,2.35
510,Beya,RU,2022-02-11 02:56:37,53.0533,90.9139,-10.62,92,49,1.07
511,Kalamata,GR,2022-02-11 02:56:37,37.0389,22.1142,48.11,54,0,3.44
512,Dicabisagan,PH,2022-02-11 02:56:38,17.0818,122.4157,76.06,85,98,7.65
513,Bukachacha,RU,2022-02-11 02:56:38,52.9833,116.9167,2.43,80,100,3.51
514,Byron Bay,AU,2022-02-11 02:54:01,-28.65,153.6167,84.06,57,19,19.48
515,Shizuishan,CN,2022-02-11 02:56:38,39.2333,106.7694,26.73,65,95,6.2
516,Kedrovyy,RU,2022-02-11 02:56:38,56.1667,91.8167,-25.19,94,8,1.23
517,Fuxin,CN,2022-02-11 02:56:39,42.0156,121.6589,26.06,41,7,14.03
518,Hegang,CN,2022-02-11 02:56:39,47.4,130.3667,11.01,88,100,5.03
519,Tsuyama,JP,2022-02-11 02:56:39,35.05,134.0,49.84,54,39,2.77
520,Mana,GF,2022-02-11 02:56:40,5.6592,-53.7767,75.69,89,87,8.86
521,Deep River,CA,2022-02-11 02:56:40,46.1001,-77.4995,21.87,92,74,4.27
522,Yagunovskiy,RU,2022-02-11 02:56:40,55.2828,85.978,-2.76,71,48,8.95
523,Siocon,PH,2022-02-11 02:56:41,7.7061,122.1353,84.94,71,100,5.91
524,Jawhar,SO,2022-02-11 02:56:41,2.7809,45.5005,70.63,80,69,14.41
525,Mandalgovi,MN,2022-02-11 02:56:41,45.7625,106.2708,-0.47,60,100,13.49
526,Bhunya,SZ,2022-02-11 02:56:41,-26.55,31.0167,61.83,62,1,3.78
527,Praia,CV,2022-02-11 02:56:42,14.9215,-23.5087,75.74,53,0,17.27
528,Mumford,GH,2022-02-11 02:56:42,5.2618,-0.759,78.22,91,0,6.35
529,Xuddur,SO,2022-02-11 02:56:42,4.1213,43.8894,65.21,79,25,16.96
530,Kadom,RU,2022-02-11 02:56:43,54.5592,42.4675,29.03,95,98,9.44
531,Dukat,RU,2022-02-11 02:56:43,62.55,155.55,-13.4,79,80,2.75
532,Chapais,CA,2022-02-11 02:56:43,49.7834,-74.8492,1.18,99,100,4.16
533,Tingi,TZ,2022-02-11 02:56:43,-11.3,35.0333,62.38,97,99,1.77
534,Huntingdon,GB,2022-02-11 02:56:05,52.3305,-0.1865,37.8,89,6,1.01
535,Grand Forks,US,2022-02-11 02:56:12,47.9417,-97.4337,35.33,87,100,19.57
536,Kollo,NE,2022-02-11 02:56:44,13.3043,2.339,72.03,13,0,9.86
537,Shrigonda,IN,2022-02-11 02:56:44,18.6167,74.6833,67.3,37,44,9.78
538,Karema,TZ,2022-02-11 02:56:44,-6.8205,30.4389,69.37,88,92,3.31
539,Las Cruces,US,2022-02-11 02:52:12,32.3123,-106.7783,56.28,27,0,5.75
540,Cedeno,CO,2022-02-11 02:56:45,7.0464,-72.1634,74.25,80,79,3.24
541,Kyra,RU,2022-02-11 02:56:45,49.5776,111.9753,-3.08,72,37,5.3
542,Gejiu,CN,2022-02-11 02:56:45,23.306,103.1635,54.34,46,11,5.95
543,Mokobeng,BW,2022-02-11 02:56:46,-22.9965,27.6678,69.57,64,7,2.66
544,Verkhnyaya Inta,RU,2022-02-11 02:56:46,65.9811,60.3094,15.39,71,100,18.48
545,Wuchi,CN,2022-02-11 02:56:46,29.3786,103.023,34.97,62,16,1.36
546,Benavente,ES,2022-02-11 02:56:47,42.0025,-5.6783,48.88,78,79,10.49
547,Taksimo,RU,2022-02-11 02:56:47,56.3444,114.8794,-8.95,88,89,1.41
548,Changping,CN,2022-02-11 02:56:47,40.2186,116.2197,42.44,31,100,4.59
549,Maragogi,BR,2022-02-11 02:56:48,-9.0122,-35.2225,78.31,75,100,6.93
550,Saint-Joseph,RE,2022-02-11 02:56:48,-21.3667,55.6167,73.78,79,14,3.31
551,Shimoda,JP,2022-02-11 02:56:48,34.6667,138.95,46.76,72,86,13.22
552,Noyabrsk,RU,2022-02-11 02:56:49,63.1994,75.4507,-9.17,92,89,12.01
553,Rapid Valley,US,2022-02-11 02:56:49,44.0625,-103.1463,43.03,71,75,20.71
554,Pacific Grove,US,2022-02-11 02:51:52,36.6177,-121.9166,67.42,54,0,6.91
555,Andenes,NO,2022-02-11 02:56:49,69.3143,16.1194,30.18,74,40,19.57
556,Ballina,AU,2022-02-11 02:56:50,-28.8667,153.5667,82.58,70,75,17.27
557,Benjamin Constant,BR,2022-02-11 02:56:50,-4.3831,-70.0311,78.93,96,100,0.34
558,Tocopilla,CL,2022-02-11 02:56:50,-22.092,-70.1979,68.61,62,2,2.66
559,College,US,2022-02-11 02:56:50,64.8569,-147.8028,-9.9,71,20,3.44
560,Semenivka,UA,2022-02-11 02:56:51,52.1783,32.5818,34.14,100,100,11.39
561,Leh,IN,2022-02-11 02:56:51,34.1667,77.5833,-8.12,83,51,3.27
562,Dongsheng,CN,2022-02-11 02:56:52,39.8161,109.9776,28.04,42,100,5.77
563,Lafiagi,NG,2022-02-11 02:56:52,8.8667,5.4167,73.15,13,4,1.14
564,Allapalli,IN,2022-02-11 02:56:52,19.4167,80.0667,70.11,44,27,5.66
565,Hurricane,US,2022-02-11 02:56:52,37.1753,-113.2899,58.33,52,0,8.01
566,Tokur,RU,2022-02-11 02:56:53,53.1333,132.9,5.85,86,94,2.48
567,Dusti,TJ,2022-02-11 02:56:53,37.3481,68.664,38.12,44,78,5.26
568,Solnechnyy,RU,2022-02-11 02:56:53,50.7214,136.6319,12.13,86,100,4.03
569,Dingtao,CN,2022-02-11 02:56:54,35.0683,115.5625,45.88,50,100,5.91
570,Kainantu,PG,2022-02-11 02:56:55,-6.2887,145.8655,69.55,84,97,2.62
571,Warrington,GB,2022-02-11 02:56:55,53.3925,-2.5802,41.11,88,40,9.22
572,Bonthe,SL,2022-02-11 02:56:56,7.5264,-12.505,76.24,92,1,1.43
573,Snasa,NO,2022-02-11 02:56:57,64.2457,12.3778,27.23,79,100,9.55
574,Lagoa,PT,2022-02-11 02:56:57,39.05,-27.9833,58.68,70,97,6.73
575,Bafoulabe,ML,2022-02-11 02:56:57,13.8065,-10.8321,76.06,9,0,7.11
576,Santa Maria,BR,2022-02-11 02:56:43,-29.6842,-53.8069,72.7,78,0,8.05
