City_ID,City,Country,Date,Lat,Lng,Max Temp,Humidity,Cloudiness,Wind Speed
0,Hamilton,US,2022-02-14 02:00:14,39.1834,-84.5333,21.58,78,100,1.99
1,Port Alfred,ZA,2022-02-14 01:56:36,-33.5906,26.891,68.83,90,58,15.21
2,Manokwari,ID,2022-02-14 02:00:18,-0.8667,134.0833,82.04,70,100,5.17
3,Murakami,JP,2022-02-14 02:00:19,38.2333,139.4833,37.72,64,61,3.78
4,Talnakh,RU,2022-02-14 02:00:19,69.4865,88.3972,-8.05,70,10,8.79
5,Hermanus,ZA,2022-02-14 01:56:52,-34.4187,19.2345,67.89,79,80,17.87
6,Deputatskiy,RU,2022-02-14 02:00:20,69.3,139.9,-11.51,95,98,4.79
7,Wewak,PG,2022-02-14 02:00:20,-3.5534,143.6268,83.16,75,97,2.66
8,Huilong,CN,2022-02-14 02:00:22,31.8111,121.655,45.99,58,0,10.09
9,Avera,US,2022-02-14 01:57:04,33.194,-82.5271,46.71,34,0,15.39
10,Mataura,NZ,2022-02-14 02:00:23,-46.1927,168.8643,65.48,35,100,2.75
11,Tessalit,ML,2022-02-14 02:00:24,20.1986,1.0114,60.03,23,60,10.8
12,Terra Rica,BR,2022-02-14 02:00:26,-22.7094,-52.6169,74.89,77,57,1.95
13,Ushuaia,AR,2022-02-14 01:56:46,-54.8,-68.3,38.86,75,40,34.52
14,Pisco,PE,2022-02-14 02:00:07,-13.7,-76.2167,67.01,88,17,2.1
15,Longyearbyen,SJ,2022-02-14 02:00:27,78.2186,15.6401,15.64,92,75,0.0
16,Chokurdakh,RU,2022-02-14 02:00:28,70.6333,147.9167,-14.03,97,83,8.32
17,Bud,US,2022-02-14 02:00:29,39.447,-86.1758,21.29,81,74,10.25
18,Butaritari,KI,2022-02-14 01:57:07,3.0707,172.7902,81.12,77,32,12.28
19,Chuy,UY,2022-02-14 02:00:30,-33.6971,-53.4616,58.44,67,5,7.31
20,Iqaluit,CA,2022-02-14 02:00:31,63.7506,-68.5145,-15.07,70,100,4.61
21,Souillac,MU,2022-02-14 02:00:31,-20.5167,57.5167,80.37,90,98,13.2
22,Esperance,AU,2022-02-14 02:00:32,-33.8667,121.9,70.03,59,65,11.14
23,Rikitea,PF,2022-02-14 01:56:35,-23.1203,-134.9692,79.0,70,3,14.58
24,Bhadrachalam,IN,2022-02-14 02:00:33,17.6667,80.8833,65.43,81,13,2.64
25,Hayesville,US,2022-02-14 02:00:33,44.986,-122.9829,59.25,61,97,1.99
26,Villiers,ZA,2022-02-14 02:00:34,-27.0303,28.6006,57.2,79,64,7.74
27,Korla,CN,2022-02-14 02:00:34,41.7597,86.1469,27.27,52,9,3.89
28,Kyshtovka,RU,2022-02-14 02:00:35,56.555,76.6271,7.21,96,100,6.13
29,Margate,GB,2022-02-14 02:00:36,51.3813,1.3862,49.71,86,100,8.99
30,Nepa Nagar,IN,2022-02-14 02:00:38,21.4667,76.4,64.44,34,2,1.72
31,Hilo,US,2022-02-14 01:56:33,19.7297,-155.09,74.12,80,42,3.0
32,Marawi,PH,2022-02-14 02:00:40,7.9986,124.2928,72.64,56,99,2.77
33,Atuona,PF,2022-02-14 01:57:41,-9.8,-139.0333,77.61,79,17,13.56
34,Beihai,CN,2022-02-14 02:00:27,21.4833,109.1,56.1,71,20,15.68
35,Santiago Del Estero,AR,2022-02-14 01:59:53,-27.7951,-64.2615,70.36,37,5,7.25
36,Hovd,MN,2022-02-14 02:00:40,48.0056,91.6419,-12.48,79,66,0.51
37,Busselton,AU,2022-02-14 02:00:44,-33.65,115.3333,81.05,46,0,9.48
38,Victoria,HK,2022-02-14 01:59:22,22.2855,114.1577,61.95,76,48,5.99
39,Punta Arenas,CL,2022-02-14 02:00:45,-53.15,-70.9167,44.11,48,17,16.02
40,Tasiilaq,GL,2022-02-14 02:00:45,65.6145,-37.6368,21.36,91,100,20.71
41,Bondoukou,CI,2022-02-14 02:00:45,8.0333,-2.8,73.29,76,1,4.56
42,Dhule,IN,2022-02-14 02:00:46,20.9,74.7833,68.41,42,0,2.59
43,Sao Filipe,CV,2022-02-14 02:00:47,14.8961,-24.4956,73.36,68,84,10.76
44,Avarua,CK,2022-02-14 02:00:47,-21.2078,-159.775,75.25,94,40,6.91
45,Ollioules,FR,2022-02-14 02:00:49,43.1352,5.848,51.31,87,100,5.99
46,Athabasca,CA,2022-02-14 02:00:48,54.7169,-113.2854,15.31,89,100,6.24
47,Vaini,TO,2022-02-14 02:00:50,-21.2,-175.2,80.42,71,85,15.95
48,Lincoln,US,2022-02-14 02:00:18,40.8,-96.667,31.28,49,62,7.0
49,Lasa,IT,2022-02-14 02:00:50,46.6166,10.7002,25.02,69,3,1.7
50,Hualmay,PE,2022-02-14 02:00:51,-11.0964,-77.6139,71.38,80,100,9.6
51,East London,ZA,2022-02-14 02:00:34,-33.0153,27.9116,71.31,81,20,9.95
52,Aklavik,CA,2022-02-14 02:00:51,68.2191,-135.0107,-24.88,98,100,10.74
53,Aksu,CN,2022-02-14 02:00:52,41.1231,80.2644,27.12,42,98,3.69
54,New Norfolk,AU,2022-02-14 01:57:26,-42.7826,147.0587,66.9,59,96,1.99
55,Kodiak,US,2022-02-14 02:00:54,57.79,-152.4072,35.74,80,14,0.96
56,Saskylakh,RU,2022-02-14 02:00:54,71.9167,114.0833,-17.45,93,20,3.02
57,Castelo,BR,2022-02-14 02:00:55,-20.6036,-41.1847,71.17,96,25,4.25
58,Port Blair,IN,2022-02-14 02:00:56,11.6667,92.75,71.64,88,20,2.3
59,Yaan,NG,2022-02-14 02:00:57,7.3833,8.5667,78.73,14,97,3.83
60,Cidreira,BR,2022-02-14 02:00:58,-30.1811,-50.2056,68.77,88,24,2.75
61,Lalmohan,BD,2022-02-14 02:00:59,22.3384,90.7419,64.89,65,6,11.48
62,Bredasdorp,ZA,2022-02-14 02:00:59,-34.5322,20.0403,64.27,72,99,14.61
63,Kyra,RU,2022-02-14 02:01:00,49.5776,111.9753,-12.73,91,23,1.54
64,Yulara,AU,2022-02-14 02:01:01,-25.2406,130.9889,92.57,10,2,12.77
65,Airai,TL,2022-02-14 01:58:35,-8.9266,125.4092,72.54,59,23,2.44
66,Ribeira Grande,PT,2022-02-14 02:01:02,38.5167,-28.7,58.08,69,100,3.51
67,Yabrud,SY,2022-02-14 02:01:02,33.9674,36.6574,29.86,57,0,3.24
68,Rawson,AR,2022-02-14 02:01:03,-43.3002,-65.1023,73.94,40,4,3.65
69,Cape Town,ZA,2022-02-14 01:57:03,-33.9258,18.4232,68.41,79,20,23.02
70,Plettenberg Bay,ZA,2022-02-14 01:57:58,-34.0527,23.3716,67.05,92,100,9.28
71,Sao Joao Da Barra,BR,2022-02-14 01:59:41,-21.6403,-41.0511,77.09,88,31,13.42
72,Albany,US,2022-02-14 01:57:05,42.6001,-73.9662,22.17,57,29,1.01
73,Torbay,CA,2022-02-14 02:01:06,47.6666,-52.7314,32.76,83,100,11.5
74,Barrow,US,2022-02-14 01:58:24,71.2906,-156.7887,-24.57,100,100,8.41
75,Upernavik,GL,2022-02-14 02:01:07,72.7868,-56.1549,-3.35,96,100,4.47
76,Conceicao Da Barra,BR,2022-02-14 02:01:07,-18.5933,-39.7322,76.71,84,17,7.76
77,Mogadishu,SO,2022-02-14 02:01:08,2.0371,45.3438,76.59,81,95,18.05
78,Jamestown,US,2022-02-14 01:57:09,42.097,-79.2353,14.52,98,98,3.09
79,Faanui,PF,2022-02-14 01:56:42,-16.4833,-151.75,80.38,75,100,13.85
80,Puerto Ayora,EC,2022-02-14 02:01:10,-0.7393,-90.3518,75.54,93,95,3.47
81,Vanimo,PG,2022-02-14 02:01:11,-2.6741,141.3028,82.18,80,100,1.3
82,Katsuura,JP,2022-02-14 01:59:28,35.1333,140.3,46.11,68,99,23.6
83,Solnechnyy,RU,2022-02-14 02:01:11,50.7214,136.6319,13.62,86,100,6.02
84,Bluff,NZ,2022-02-14 02:01:13,-46.6,168.3333,65.8,63,100,1.57
85,Hithadhoo,MV,2022-02-14 02:01:13,-0.6,73.0833,82.09,74,52,12.8
86,Izhma,RU,2022-02-14 02:01:14,65.0083,53.9113,1.6,98,100,5.97
87,Lebu,CL,2022-02-14 02:01:14,-37.6167,-73.65,57.61,91,98,5.28
88,Sangar,RU,2022-02-14 02:01:15,63.9242,127.4739,-27.74,95,87,2.26
89,Udachnyy,RU,2022-02-14 02:01:16,66.4167,112.4,-20.24,86,9,1.23
90,Bambous Virieux,MU,2022-02-14 02:01:17,-20.3428,57.7575,80.22,88,100,14.79
91,Salinopolis,BR,2022-02-14 02:01:18,-0.6136,-47.3561,77.85,89,100,10.18
92,Hami,CN,2022-02-14 02:01:19,42.8,93.45,25.14,44,12,6.55
93,Bira,RU,2022-02-14 02:01:20,49.0,132.4667,14.85,88,100,3.18
94,La Ronge,CA,2022-02-14 01:57:15,55.1001,-105.2842,14.25,79,100,8.05
95,Yarmouth,US,2022-02-14 02:01:21,41.7057,-70.2286,34.0,93,100,10.36
96,Opuwo,NA,2022-02-14 02:01:21,-18.0607,13.84,67.95,87,100,0.38
97,Bonfim,BR,2022-02-14 02:01:22,3.0833,-59.95,80.06,67,26,10.31
98,Hay River,CA,2022-02-14 02:01:22,60.8156,-115.7999,-17.21,99,91,3.87
99,Bundaberg,AU,2022-02-14 02:01:23,-24.85,152.35,77.76,76,36,17.22
100,Ankara,TR,2022-02-14 02:01:20,39.9199,32.8543,29.32,83,100,0.49
101,Kolpashevo,RU,2022-02-14 02:01:24,58.3131,82.9089,7.03,94,100,11.52
102,Obo,CF,2022-02-14 02:01:26,5.3998,26.4869,71.89,23,15,3.91
103,Pangai,TO,2022-02-14 02:01:28,-19.8,-174.35,81.39,77,85,17.18
104,Mykhaylivka,UA,2022-02-14 02:01:28,47.2724,35.2224,30.2,65,0,5.88
105,Havre-Saint-Pierre,CA,2022-02-14 01:58:22,50.2334,-63.5986,3.2,71,0,11.5
106,Kirakira,SB,2022-02-14 02:01:29,-10.4544,161.9205,80.04,84,100,4.09
107,Yellowknife,CA,2022-02-14 01:58:40,62.456,-114.3525,-17.45,86,40,4.61
108,Linxia,CN,2022-02-14 02:01:31,35.6003,103.2064,19.9,78,86,1.1
109,Bathsheba,BB,2022-02-14 02:01:32,13.2167,-59.5167,76.5,74,8,17.96
110,Carlyle,US,2022-02-14 02:00:49,38.6103,-89.3726,21.6,75,4,7.87
111,Georgetown,MY,2022-02-14 02:01:34,5.4112,100.3354,84.13,79,20,3.44
112,Hokitika,NZ,2022-02-14 02:01:35,-42.7167,170.9667,63.61,50,0,7.67
113,Arraial Do Cabo,BR,2022-02-14 02:01:35,-22.9661,-42.0278,75.43,92,16,15.43
114,Alofi,NU,2022-02-14 02:01:36,-19.0595,-169.9187,81.01,73,98,11.88
115,Padang,ID,2022-02-14 02:01:36,-0.9492,100.3543,80.65,62,63,0.74
116,Ambanja,MG,2022-02-14 02:01:37,-13.6833,48.45,72.39,93,3,3.42
117,Kaka,TM,2022-02-14 02:01:38,37.3482,59.6143,43.41,69,100,12.08
118,Mitsamiouli,KM,2022-02-14 02:01:39,-11.3847,43.2844,80.69,79,13,1.59
119,Omsukchan,RU,2022-02-14 01:59:48,62.5333,155.8,-15.56,95,52,5.1
120,Dunedin,NZ,2022-02-14 02:01:41,-45.8742,170.5036,61.81,62,72,13.0
121,Qaanaaq,GL,2022-02-14 02:01:42,77.484,-69.3632,-8.28,70,76,6.76
122,Alyangula,AU,2022-02-14 02:01:42,-13.8483,136.4192,87.26,61,5,14.99
123,Gudermes,RU,2022-02-14 02:01:13,43.3569,46.1053,26.04,77,12,4.21
124,Port Hedland,AU,2022-02-14 01:58:07,-20.3167,118.5667,95.05,43,21,19.57
125,Touros,BR,2022-02-14 02:01:44,-5.1989,-35.4608,80.46,75,5,13.02
126,Saint-Philippe,RE,2022-02-14 01:57:21,-21.3585,55.7679,78.39,87,38,11.43
127,Luderitz,NA,2022-02-14 01:57:00,-26.6481,15.1594,71.06,67,1,9.8
128,Constitucion,CL,2022-02-14 02:01:46,-35.3333,-72.4167,58.86,90,64,2.93
129,Mar Del Plata,AR,2022-02-14 02:01:47,-38.0023,-57.5575,64.87,73,0,1.01
130,Bengkulu,ID,2022-02-14 02:01:49,-3.8004,102.2655,81.36,71,99,2.77
131,Cabo San Lucas,MX,2022-02-14 02:00:24,22.8909,-109.9124,71.19,58,79,6.2
132,Ponta Do Sol,PT,2022-02-14 02:01:50,32.6667,-17.1,61.72,71,88,1.3
133,Safidon,IN,2022-02-14 02:01:51,29.4167,76.6667,50.11,73,0,3.38
134,Huarmey,PE,2022-02-14 02:01:54,-10.0681,-78.1522,72.77,78,86,7.63
135,Nipawin,CA,2022-02-14 02:01:54,53.3668,-104.0009,3.34,94,97,6.4
136,Shirokiy,RU,2022-02-14 02:01:56,49.758,129.523,7.36,90,100,2.1
137,Bluefield,US,2022-02-14 02:01:56,37.2698,-81.2223,26.65,72,75,4.61
138,Richards Bay,ZA,2022-02-14 02:01:57,-28.783,32.0377,76.5,89,100,8.95
139,Matagami,CA,2022-02-14 02:01:58,49.7502,-77.6328,-19.5,99,88,2.46
140,Cortez,US,2022-02-14 02:01:58,37.3489,-108.5859,45.52,34,0,3.44
141,Havelock,US,2022-02-14 02:01:58,34.8791,-76.9013,45.05,81,100,4.0
142,Gusau,NG,2022-02-14 02:02:00,12.1628,6.6614,69.71,14,14,9.66
143,Tautira,PF,2022-02-14 01:57:07,-17.7333,-149.15,87.82,77,75,17.47
144,Komsomolskiy,UZ,2022-02-14 01:57:40,40.4272,71.7189,36.32,87,100,2.3
145,Ewa Beach,US,2022-02-14 02:02:02,21.3156,-158.0072,79.99,48,8,11.01
146,Plouzane,FR,2022-02-14 02:02:02,48.3833,-4.6167,46.45,84,20,11.5
147,Hobart,AU,2022-02-14 02:00:08,-42.8794,147.3294,69.03,66,75,12.66
148,Saldanha,ZA,2022-02-14 01:58:38,-33.0117,17.9442,64.45,90,0,14.07
149,Tairua,NZ,2022-02-14 02:02:04,-37.0167,175.85,67.03,73,54,4.14
150,Letlhakane,BW,2022-02-14 02:02:05,-21.4167,25.5833,68.54,50,19,7.09
151,Kapaa,US,2022-02-14 02:02:05,22.0752,-159.319,76.48,64,8,5.01
152,Sicuani,PE,2022-02-14 02:02:06,-14.2694,-71.2261,45.48,87,58,2.39
153,Letterkenny,IE,2022-02-14 02:02:06,54.95,-7.7333,44.02,91,100,10.51
154,Thompson,CA,2022-02-14 02:02:06,55.7435,-97.8558,-20.47,100,56,3.8
155,High Level,CA,2022-02-14 02:02:08,58.5169,-117.136,-9.08,100,32,2.44
156,Katangli,RU,2022-02-14 02:02:08,51.7102,143.2326,5.16,77,8,11.52
157,Banda Aceh,ID,2022-02-14 02:02:09,5.5577,95.3222,81.09,72,64,7.0
158,Norman Wells,CA,2022-02-14 02:02:09,65.282,-126.8329,-7.56,71,100,3.44
159,Adrar,MR,2022-02-14 02:02:10,20.5022,-10.0711,59.85,24,95,10.83
160,Paamiut,GL,2022-02-14 02:02:11,61.994,-49.6678,10.36,90,100,17.74
161,Bethel,US,2022-02-14 01:57:30,41.3712,-73.414,27.48,67,87,10.0
162,Tabou,CI,2022-02-14 02:02:11,4.423,-7.3528,76.86,88,91,4.05
163,Pevek,RU,2022-02-14 02:02:12,69.7008,170.3133,-15.95,97,100,8.41
164,Ravar,IR,2022-02-14 02:02:13,31.2656,56.8055,42.82,38,0,5.35
165,Leningradskiy,RU,2022-02-14 01:59:02,69.3833,178.4167,-16.44,90,77,5.48
166,Tuatapere,NZ,2022-02-14 02:02:17,-46.1333,167.6833,65.82,51,100,5.68
167,Onega,RU,2022-02-14 02:02:18,63.9061,38.1404,27.82,94,100,12.15
168,Coquimbo,CL,2022-02-14 01:59:05,-29.9533,-71.3436,65.93,72,0,6.91
169,College,US,2022-02-14 01:57:48,64.8569,-147.8028,9.59,82,100,3.44
170,Aleppo,SY,2022-02-14 02:02:18,36.25,37.5,44.46,88,0,10.2
171,Cascais,PT,2022-02-14 02:02:19,38.6979,-9.4215,55.44,70,0,20.0
172,Mangrol,IN,2022-02-14 02:02:20,21.1167,70.1167,64.45,75,16,9.13
173,Kalmunai,LK,2022-02-14 02:02:20,7.4167,81.8167,77.81,79,81,9.42
174,Vila Franca Do Campo,PT,2022-02-14 02:02:21,37.7167,-25.4333,58.19,70,100,4.09
175,Kruisfontein,ZA,2022-02-14 02:02:22,-34.0033,24.7314,65.88,92,100,11.9
176,Catia La Mar,VE,2022-02-14 02:00:15,10.6038,-67.0303,75.81,81,17,11.21
177,Tuktoyaktuk,CA,2022-02-14 02:02:22,69.4541,-133.0374,-33.2,100,65,6.46
178,Otanche,CO,2022-02-14 02:02:23,5.6567,-74.1825,66.24,97,88,3.0
179,Khatanga,RU,2022-02-14 02:02:24,71.9667,102.5,-27.56,100,52,2.33
180,Tiksi,RU,2022-02-14 02:02:25,71.6872,128.8694,-12.42,91,19,10.47
181,Krasnoselkup,RU,2022-02-14 02:02:27,65.7,82.4667,-3.8,94,67,14.32
182,Tazovskiy,RU,2022-02-14 02:02:27,67.4667,78.7,-7.15,96,92,10.25
183,San Juan Del Sur,NI,2022-02-14 02:02:28,11.2529,-85.8705,79.54,72,4,20.42
184,Maryborough,AU,2022-02-14 02:02:29,-25.5333,152.7,77.04,77,33,11.3
185,Ilhabela,BR,2022-02-14 02:00:45,-23.7781,-45.3581,74.7,90,29,8.34
186,Moree,AU,2022-02-14 02:02:30,-29.4667,149.85,85.19,28,4,5.77
187,Broome,US,2022-02-14 02:02:30,42.2506,-75.833,16.02,75,0,8.05
188,Caravelas,BR,2022-02-14 01:58:46,-17.7125,-39.2481,75.09,91,95,4.72
189,Leh,IN,2022-02-14 01:59:17,34.1667,77.5833,-1.5,86,54,2.8
190,Cacoal,BR,2022-02-14 01:58:04,-11.4386,-61.4472,71.73,97,100,1.68
191,Olonets,RU,2022-02-14 02:02:34,60.9847,32.9698,30.6,96,100,14.45
192,Broken Hill,AU,2022-02-14 02:02:34,-31.95,141.4333,92.84,20,97,7.14
193,Whitefish,US,2022-02-14 02:00:22,48.4111,-114.3376,34.41,70,76,0.98
194,Hauterive,FR,2022-02-14 02:02:35,46.0901,3.4459,51.58,66,99,16.31
195,Camacha,PT,2022-02-14 02:02:36,33.0833,-16.3333,57.96,72,20,3.44
196,Satellite Beach,US,2022-02-14 02:02:37,28.1761,-80.5901,66.06,87,20,3.44
197,Nikolskoye,RU,2022-02-14 02:02:37,59.7035,30.7861,36.88,91,100,11.54
198,Alice Springs,AU,2022-02-14 02:01:26,-23.7,133.8833,90.95,24,0,10.36
199,Kashi,CN,2022-02-14 02:02:37,39.4547,75.9797,27.23,58,8,3.91
200,Sabang,ID,2022-02-14 02:02:38,5.8933,95.3214,82.26,72,36,10.96
201,Hasaki,JP,2022-02-14 02:02:38,35.7333,140.8333,41.4,57,100,28.32
202,Carutapera,BR,2022-02-14 02:02:39,-1.195,-46.02,77.02,90,100,6.69
203,Nishihara,JP,2022-02-14 02:00:14,26.1842,127.7558,64.06,88,75,18.41
204,Ahipara,NZ,2022-02-14 02:02:39,-35.1667,173.1667,70.84,55,17,11.52
205,Mahebourg,MU,2022-02-14 02:01:07,-20.4081,57.7,80.26,88,100,15.12
206,Kayerkan,RU,2022-02-14 02:02:40,69.3497,87.7602,-8.77,80,12,7.58
207,Shirvan,AZ,2022-02-14 02:02:42,39.9509,48.8994,38.03,77,80,10.56
208,Cherskiy,RU,2022-02-14 02:02:43,68.75,161.3,-21.87,97,95,6.29
209,Westport,US,2022-02-14 01:59:53,41.1415,-73.3579,28.98,66,99,7.0
210,Vila Velha,BR,2022-02-14 02:01:02,-20.3297,-40.2925,73.94,97,9,1.99
211,Mount Gambier,AU,2022-02-14 02:02:46,-37.8333,140.7667,74.43,51,23,8.66
212,Severo-Kurilsk,RU,2022-02-14 02:02:46,50.6789,156.125,26.58,67,58,15.75
213,Pacific Grove,US,2022-02-14 02:00:30,36.6177,-121.9166,73.8,81,100,5.75
214,Beidao,CN,2022-02-14 02:02:48,34.5686,105.8933,35.22,83,100,2.39
215,Dhandhuka,IN,2022-02-14 02:02:49,22.3667,71.9833,62.38,34,9,5.59
216,Tari,NG,2022-02-14 02:02:49,12.4086,4.4914,71.91,13,0,9.4
217,Alikalia,SL,2022-02-14 02:02:50,9.1667,-11.4,69.22,71,41,1.83
218,Chumikan,RU,2022-02-14 02:02:51,54.7183,135.315,1.36,77,83,4.79
219,Bar Harbor,US,2022-02-14 02:02:53,44.3876,-68.2039,18.91,44,100,11.5
220,Port Lincoln,AU,2022-02-14 02:02:30,-34.7333,135.8667,71.87,69,15,11.99
221,Kangasala,FI,2022-02-14 02:02:54,61.4638,24.076,36.14,99,100,10.31
222,Anton Lizardo,MX,2022-02-14 02:02:55,19.05,-95.9833,65.21,62,97,28.39
223,Narsaq,GL,2022-02-14 02:02:55,60.9167,-46.05,21.42,96,100,7.07
224,Antofagasta,CL,2022-02-14 02:02:55,-23.65,-70.4,68.16,79,82,4.59
225,Husavik,IS,2022-02-14 02:02:56,66.0449,-17.3389,15.21,77,95,16.96
226,Muli,MV,2022-02-14 02:02:57,2.9167,73.5667,81.59,76,47,10.22
227,Debre Tabor,ET,2022-02-14 02:02:59,11.85,38.0167,53.64,53,3,5.28
228,Malanje,AO,2022-02-14 02:03:02,-9.5402,16.341,63.34,98,100,4.85
229,Mayumba,GA,2022-02-14 02:03:03,-3.432,10.6554,77.16,89,94,2.39
230,Batemans Bay,AU,2022-02-14 02:03:04,-35.7167,150.1833,90.19,41,99,10.36
231,Half Moon Bay,US,2022-02-14 02:02:32,37.4636,-122.4286,70.92,61,0,11.5
232,Porto Walter,BR,2022-02-14 02:03:05,-8.2686,-72.7439,72.43,99,100,4.5
233,Doha,QA,2022-02-14 02:03:05,25.2867,51.5333,62.58,63,0,9.22
234,Roebourne,AU,2022-02-14 02:03:06,-20.7833,117.1333,95.76,38,66,11.25
235,Leningradskaya,RU,2022-02-14 02:03:06,46.3214,39.3877,32.16,67,0,7.36
236,Lamesa,US,2022-02-14 02:03:07,32.7376,-101.951,51.08,25,0,8.86
237,Sorland,NO,2022-02-14 02:03:08,67.667,12.6934,34.38,60,99,27.45
238,Vadso,NO,2022-02-14 02:03:08,70.0744,29.7487,16.68,88,100,12.24
239,Okhotsk,RU,2022-02-14 02:03:09,59.3833,143.3,-4.59,75,0,14.23
240,Grindavik,IS,2022-02-14 02:03:10,63.8424,-22.4338,30.15,80,75,12.66
241,Tarbes,FR,2022-02-14 02:03:11,43.25,0.1667,51.26,87,75,8.05
242,Ladario,BR,2022-02-14 02:03:13,-19.0047,-57.6017,81.93,57,80,1.01
243,Kutum,SD,2022-02-14 02:03:13,14.2,24.6667,58.08,20,7,8.34
244,Ancud,CL,2022-02-14 02:03:13,-41.8697,-73.8203,60.42,95,6,2.26
245,Ambulu,ID,2022-02-14 02:03:15,-8.345,113.6058,78.98,85,76,0.85
246,Beringovskiy,RU,2022-02-14 02:03:15,63.05,179.3167,-20.47,95,28,9.19
247,Pauini,BR,2022-02-14 02:03:16,-7.7136,-66.9764,73.02,98,100,2.08
248,Moerai,PF,2022-02-14 02:03:16,-22.4333,-151.3333,78.49,77,99,13.27
249,Casper,US,2022-02-14 02:03:18,42.8666,-106.3131,37.51,69,0,6.91
250,Ahuimanu,US,2022-02-14 02:03:19,21.4447,-157.8378,80.31,59,0,16.11
251,Shimoda,JP,2022-02-14 02:03:19,34.6667,138.95,39.11,66,100,17.65
252,Kiama,AU,2022-02-14 02:03:20,-34.6833,150.8667,83.37,56,95,11.99
253,Provideniya,RU,2022-02-14 02:03:21,64.3833,-173.3,-2.09,65,0,6.71
254,San Cristobal,VE,2022-02-14 02:03:23,7.7669,-72.225,73.58,77,100,1.32
255,Bay Roberts,CA,2022-02-14 02:03:24,47.5999,-53.2648,33.51,77,100,3.0
256,Hurghada,EG,2022-02-14 01:58:24,27.2574,33.8129,59.04,58,0,12.66
257,Yamada,JP,2022-02-14 02:03:24,39.4667,141.95,39.38,36,1,5.77
258,Yar-Sale,RU,2022-02-14 02:03:26,66.8333,70.8333,-19.86,99,100,7.25
259,Den Helder,NL,2022-02-14 02:03:26,52.9599,4.7593,52.07,74,100,35.01
260,Honiara,SB,2022-02-14 02:03:27,-9.4333,159.95,82.42,82,97,7.36
261,Ilulissat,GL,2022-02-14 02:03:27,69.2167,-51.1,6.82,72,100,13.8
262,Vao,NC,2022-02-14 02:03:28,-22.6667,167.4833,80.46,80,99,9.13
263,Codrington,AU,2022-02-14 02:03:28,-38.2667,141.9667,71.44,60,25,10.71
264,Lakes Entrance,AU,2022-02-14 02:03:28,-37.8811,147.981,91.17,52,15,7.38
265,Grand Gaube,MU,2022-02-14 02:03:29,-20.0064,57.6608,80.38,80,100,10.0
266,Kudahuvadhoo,MV,2022-02-14 02:03:29,2.6708,72.8944,81.34,75,86,7.92
267,Phangnga,TH,2022-02-14 02:03:31,8.4509,98.5298,84.81,77,90,3.96
268,Ariquemes,BR,2022-02-14 02:03:32,-9.9133,-63.0408,71.22,99,100,1.9
269,Buraydah,SA,2022-02-14 02:03:35,26.326,43.975,50.14,32,0,4.94
270,Balung,ID,2022-02-14 02:03:36,-7.7333,113.9167,82.18,77,86,2.1
271,Mecca,SA,2022-02-14 02:03:36,21.4267,39.8261,71.58,27,7,4.79
272,Barcelos,PT,2022-02-14 02:03:37,41.5388,-8.6151,50.14,88,29,5.46
273,Morondava,MG,2022-02-14 02:03:37,-20.2833,44.2833,77.97,91,24,8.28
274,Ishigaki,JP,2022-02-14 01:59:13,24.3448,124.1572,66.33,88,75,14.97
275,Dwarka,IN,2022-02-14 02:03:41,22.2394,68.9678,68.27,64,0,6.31
276,Bloomfield,US,2022-02-14 02:00:48,40.8068,-74.1854,29.98,70,100,8.05
277,Aksha,RU,2022-02-14 02:03:44,50.2814,113.2867,-10.89,91,69,1.97
278,Cuamba,MZ,2022-02-14 02:03:45,-14.8031,36.5372,68.86,98,99,0.34
279,Dikson,RU,2022-02-14 02:03:46,73.5069,80.5464,-5.42,88,100,23.17
280,Clyde River,CA,2022-02-14 02:03:47,70.4692,-68.5914,-14.57,76,100,25.32
281,Sumbe,AO,2022-02-14 02:03:49,-11.2061,13.8437,74.91,85,99,3.67
282,Ahlat,TR,2022-02-14 02:03:50,38.7518,42.4814,18.0,75,100,3.67
283,Hambantota,LK,2022-02-14 02:03:51,6.1241,81.1185,77.34,94,40,9.22
284,Chiang Khong,TH,2022-02-14 02:03:51,20.2613,100.4046,68.63,35,49,1.97
285,Pontes E Lacerda,BR,2022-02-14 02:03:52,-15.2261,-59.3353,71.62,97,100,2.21
286,Samarai,PG,2022-02-14 02:03:52,-10.6167,150.6667,83.23,69,69,7.92
287,Kavaratti,IN,2022-02-14 02:03:53,10.5669,72.642,80.6,71,0,7.05
288,Kyren,RU,2022-02-14 02:03:53,51.6828,102.1408,-5.98,92,97,0.36
289,Karlstad,SE,2022-02-14 02:03:54,59.3793,13.5036,34.36,94,100,13.8
290,Port Elizabeth,ZA,2022-02-14 02:01:50,-33.918,25.5701,68.47,86,94,14.72
291,Castro,BR,2022-02-14 02:01:19,-24.7911,-50.0119,65.43,89,97,2.48
292,Jiwani,PK,2022-02-14 02:03:57,25.05,61.7417,70.27,70,40,3.69
293,Portland,US,2022-02-14 01:59:19,45.5234,-122.6762,58.42,63,98,7.0
294,Gat,IL,2022-02-14 02:03:58,31.61,34.7642,55.4,100,99,7.43
295,Katobu,ID,2022-02-14 02:03:58,-4.9408,122.5276,82.04,74,72,5.19
296,Kanye,BW,2022-02-14 02:04:00,-24.9667,25.3327,64.56,42,19,5.01
297,Carnarvon,AU,2022-02-14 02:04:04,-24.8667,113.6333,85.37,64,5,4.7
298,Skibbereen,IE,2022-02-14 02:04:05,51.55,-9.2667,40.8,81,40,11.86
299,Riyadh,SA,2022-02-14 02:04:07,24.6877,46.7219,46.54,34,0,8.37
300,Kavieng,PG,2022-02-14 02:04:09,-2.5744,150.7967,84.43,70,84,6.33
301,Zverinogolovskoye,RU,2022-02-14 02:04:09,54.4586,64.8542,7.97,97,100,3.24
302,Ozernovskiy,RU,2022-02-14 02:04:10,51.5,156.5167,22.33,62,100,9.66
303,Bhinmal,IN,2022-02-14 02:04:10,25.0,72.25,55.62,35,0,2.48
304,Ketchikan,US,2022-02-14 02:04:11,55.3422,-131.6461,44.58,93,100,3.44
305,Raudeberg,NO,2022-02-14 02:04:11,61.9875,5.1352,38.07,96,100,22.15
306,Perth,AU,2022-02-14 02:00:09,-31.9333,115.8333,89.67,49,0,12.66
307,Chernihiv,UA,2022-02-14 02:04:13,51.0,32.0,24.76,87,20,8.61
308,Emba,KZ,2022-02-14 02:04:13,48.8264,58.1442,15.24,95,100,13.18
309,Yairipok,IN,2022-02-14 02:04:14,24.6667,94.0667,44.46,44,0,0.74
310,Mehamn,NO,2022-02-14 02:04:15,71.0357,27.8492,19.76,94,100,7.61
311,Mizdah,LY,2022-02-14 02:01:22,31.4451,12.9801,48.2,61,41,8.28
312,Kaitangata,NZ,2022-02-14 02:04:17,-46.2817,169.8464,60.93,70,99,6.62
313,Juneau,US,2022-02-14 02:04:18,58.3019,-134.4197,33.85,94,100,3.44
314,Visby,SE,2022-02-14 02:04:18,57.6409,18.296,36.77,93,40,14.97
315,Neiafu,TO,2022-02-14 02:04:19,-18.65,-173.9833,82.29,73,89,13.73
316,Nyurba,RU,2022-02-14 02:04:20,63.2842,118.3319,-13.76,99,100,0.89
317,Abay,KZ,2022-02-14 02:04:20,49.6311,72.8539,26.98,93,100,10.18
318,Srednekolymsk,RU,2022-02-14 02:04:20,67.45,153.6833,-21.62,93,20,5.59
319,Egvekinot,RU,2022-02-14 02:04:21,66.3167,-179.1667,-16.17,90,14,6.46
320,Ostrovnoy,RU,2022-02-14 02:04:22,68.0531,39.5131,21.61,71,100,27.07
321,Alekseyevka,RU,2022-02-14 02:04:22,50.6309,38.6903,9.0,97,38,5.23
322,Lagoa,PT,2022-02-14 02:04:23,39.05,-27.9833,56.64,60,100,5.06
323,Otradnoye,RU,2022-02-14 02:04:23,59.7775,30.8181,37.04,92,100,11.63
324,Kilindoni,TZ,2022-02-14 02:04:24,-7.9139,39.6668,80.46,77,100,9.66
325,Huangpi,CN,2022-02-14 02:04:24,30.8845,114.3779,46.36,65,4,0.6
326,Isla Mujeres,MX,2022-02-14 02:04:26,21.2311,-86.731,69.17,72,28,20.67
327,Tezu,IN,2022-02-14 02:04:26,27.9167,96.1667,62.37,30,0,1.05
328,Guerrero Negro,MX,2022-02-14 02:04:27,27.9769,-114.0611,69.04,38,6,9.66
329,Qasigiannguit,GL,2022-02-14 02:04:28,68.8193,-51.1922,7.05,99,100,8.12
330,Nuuk,GL,2022-02-14 02:04:28,64.1835,-51.7216,5.61,85,75,5.75
331,Ninh Binh,VN,2022-02-14 02:04:30,20.2539,105.975,58.53,74,100,7.34
332,Pangkalanbuun,ID,2022-02-14 02:04:30,-2.6833,111.6167,84.85,68,92,3.74
333,Sakakah,SA,2022-02-14 02:04:31,29.9697,40.2064,48.51,32,0,3.58
334,Yatou,CN,2022-02-14 02:04:31,37.15,122.3833,31.8,74,100,20.18
335,Kaman,IN,2022-02-14 02:04:31,27.65,77.2667,51.51,62,0,3.29
336,Asau,RO,2022-02-14 02:04:32,46.4333,26.4,27.95,80,97,3.96
337,Teguise,ES,2022-02-14 02:04:34,29.0605,-13.564,57.42,82,0,6.91
338,Vrangel,RU,2022-02-14 02:04:34,42.7297,133.0839,21.0,39,100,5.1
339,Bafoulabe,ML,2022-02-14 02:04:35,13.8065,-10.8321,74.59,14,30,6.73
340,Shorkot,PK,2022-02-14 02:04:35,31.9099,70.8774,54.55,42,94,3.47
341,Copperas Cove,US,2022-02-14 02:04:36,31.1241,-97.9031,53.42,33,0,3.44
342,Melenki,RU,2022-02-14 02:04:36,55.3343,41.6295,21.97,91,100,9.24
343,Pangnirtung,CA,2022-02-14 01:59:43,66.1451,-65.7125,-29.2,75,20,8.05
344,Baykit,RU,2022-02-14 02:04:37,61.67,96.37,-20.63,100,55,3.56
345,Ilo,PE,2022-02-14 02:04:38,-17.6394,-71.3375,69.89,83,78,6.24
346,Santa Luzia,BR,2022-02-14 02:04:41,-19.7697,-43.8514,68.9,96,35,2.48
347,Sibolga,ID,2022-02-14 02:04:42,1.7427,98.7792,81.09,76,47,1.28
348,Olafsvik,IS,2022-02-14 02:04:42,64.8945,-23.7142,32.45,72,100,12.53
349,Kamenka,RU,2022-02-14 01:59:59,51.3223,42.7678,5.52,97,82,6.17
350,Moose Factory,CA,2022-02-14 02:04:47,51.2585,-80.6094,-12.96,100,99,0.72
351,Alizai,PK,2022-02-14 02:04:48,33.5383,70.3462,51.19,46,100,1.07
352,Woodward,US,2022-02-14 02:04:48,36.4337,-99.3904,47.43,42,0,8.05
353,Arlit,NE,2022-02-14 02:04:49,18.7369,7.3853,65.75,12,0,5.48
354,Eyl,SO,2022-02-14 02:04:49,7.9803,49.8164,71.74,73,57,11.77
355,Lourdes,FR,2022-02-14 02:04:49,43.1,-0.05,49.48,87,75,8.05
356,Miles City,US,2022-02-14 02:00:24,46.4083,-105.8406,42.51,48,86,5.61
357,Isangel,VU,2022-02-14 02:01:04,-19.55,169.2667,85.69,69,57,10.38
358,Catamarca,AR,2022-02-14 02:04:51,-28.4696,-65.7852,73.78,56,2,4.0
359,Hitachi,JP,2022-02-14 02:04:52,36.6,140.65,40.55,57,100,13.91
360,Finschhafen,PG,2022-02-14 02:04:52,-6.6024,147.8681,83.39,74,95,7.34
361,Nizhniy Tsasuchey,RU,2022-02-14 02:04:53,50.5167,115.1333,-11.56,92,82,5.26
362,Jacareacanga,BR,2022-02-14 02:04:06,-6.2222,-57.7528,73.96,98,100,2.06
363,Puerto Leguizamo,CO,2022-02-14 02:04:53,-0.1934,-74.7819,72.68,97,99,3.13
364,Lakatoro,VU,2022-02-14 02:04:54,-16.0999,167.4164,85.41,72,100,13.8
365,Sabinopolis,BR,2022-02-14 02:04:54,-18.6661,-43.0839,64.98,98,50,1.61
366,Ituiutaba,BR,2022-02-14 02:04:55,-18.9689,-49.465,71.69,90,50,4.94
367,Lompoc,US,2022-02-14 02:01:31,34.6391,-120.4579,73.56,81,40,4.61
368,Galle,LK,2022-02-14 02:00:35,6.0367,80.217,75.78,84,72,4.16
369,Praia,CV,2022-02-14 02:04:56,14.9215,-23.5087,72.14,78,40,16.11
370,Luanda,AO,2022-02-14 02:00:29,-8.8368,13.2343,76.5,86,82,2.39
371,Hofn,IS,2022-02-14 02:04:57,64.2539,-15.2082,22.73,67,31,9.91
372,Bintulu,MY,2022-02-14 02:04:57,3.1667,113.0333,81.37,81,93,2.21
373,Atar,MR,2022-02-14 02:04:59,20.5169,-13.0499,64.94,20,98,7.9
374,Fershampenuaz,RU,2022-02-14 02:04:59,53.5202,59.8117,15.58,93,100,7.27
375,Buluang,PH,2022-02-14 02:05:01,13.3068,123.3425,82.67,72,97,2.73
376,Belle Fourche,US,2022-02-14 02:05:02,44.6714,-103.8522,43.45,65,23,8.93
377,Itarema,BR,2022-02-14 02:05:03,-2.9248,-39.9167,79.45,81,24,12.44
378,Kamaishi,JP,2022-02-14 02:05:04,39.2667,141.8833,39.24,40,11,3.58
379,Walvis Bay,NA,2022-02-14 02:05:05,-22.9575,14.5053,72.09,86,36,2.35
380,Mmabatho,ZA,2022-02-14 02:05:06,-25.85,25.6333,65.5,49,41,8.88
381,Ixtapa,MX,2022-02-14 02:05:06,20.7,-105.2,75.22,64,75,2.3
382,Linqiong,CN,2022-02-14 02:05:06,30.4159,103.4609,47.39,80,100,1.79
383,Kundgol,IN,2022-02-14 02:05:07,15.25,75.25,66.4,44,25,8.23
384,Nanortalik,GL,2022-02-14 02:05:08,60.1432,-45.2371,20.71,94,100,27.2
385,Jalu,LY,2022-02-14 02:05:08,29.0331,21.5482,52.29,60,0,5.86
386,Trelleborg,SE,2022-02-14 02:05:09,55.3751,13.1569,41.38,86,100,22.39
387,Lucapa,AO,2022-02-14 02:05:10,-8.4192,20.7447,64.81,96,100,1.43
388,Tomatlan,MX,2022-02-14 02:05:10,19.9333,-105.25,72.81,51,65,0.65
389,Murgab,TM,2022-02-14 02:05:12,37.4966,61.9714,45.16,38,96,8.63
390,Khipro,PK,2022-02-14 02:05:13,25.8285,69.3772,60.31,64,0,6.38
391,Belmonte,BR,2022-02-14 02:05:14,-15.8631,-38.8828,77.5,88,91,6.29
392,Mayo,US,2022-02-14 02:05:14,38.8876,-76.5119,33.06,63,0,10.36
393,Bilma,NE,2022-02-14 02:05:15,18.6853,12.9164,63.19,15,0,6.78
394,Kargopol,RU,2022-02-14 02:05:15,61.5071,38.9456,26.82,94,100,9.86
395,Birobidzhan,RU,2022-02-14 02:05:19,48.8,132.95,13.19,91,100,3.27
396,San Patricio,US,2022-02-14 02:05:20,28.017,-97.5169,54.32,39,92,8.39
397,Faya,SA,2022-02-14 02:05:20,18.3851,42.4509,45.12,62,11,2.19
398,Umm Kaddadah,SD,2022-02-14 02:05:21,13.6017,26.6876,62.64,20,0,17.31
399,Tiarei,PF,2022-02-14 02:05:21,-17.5333,-149.3333,86.02,77,98,16.2
400,Poland,US,2022-02-14 02:05:23,44.0606,-70.3937,23.02,54,75,8.05
401,Valdosta,US,2022-02-14 02:04:52,30.8327,-83.2785,49.59,42,0,6.91
402,Parana,AR,2022-02-14 02:05:24,-31.732,-60.5238,68.31,37,0,4.12
403,Shellbrook,CA,2022-02-14 02:05:25,53.2168,-106.4011,0.75,97,49,4.97
404,Alta Floresta,BR,2022-02-14 02:05:25,-9.8756,-56.0861,70.93,97,90,2.53
405,Fonte Boa,BR,2022-02-14 02:05:26,-2.4959,-66.2662,74.05,98,100,0.51
406,Volya,RU,2022-02-14 02:05:26,51.7651,39.5404,23.09,93,65,5.82
407,Languyan,PH,2022-02-14 02:05:27,5.2618,120.0807,82.83,73,100,5.66
408,Muravlenko,RU,2022-02-14 02:05:27,63.7898,74.523,-17.45,100,99,8.46
409,Nome,US,2022-02-14 02:05:28,64.5011,-165.4064,-2.13,60,0,0.0
410,Vestmannaeyjar,IS,2022-02-14 02:05:29,63.4427,-20.2734,34.72,75,100,31.29
411,Sabha,LY,2022-02-14 02:05:29,27.0377,14.4283,50.38,36,0,11.32
412,Sikandarabad,IN,2022-02-14 02:05:30,28.45,77.7,52.02,73,0,3.18
413,Corbu,RO,2022-02-14 02:05:30,44.3833,28.65,29.52,93,0,9.22
414,Olbia,IT,2022-02-14 02:05:31,40.9214,9.4856,39.25,100,18,2.3
415,Seoul,KR,2022-02-14 02:02:19,37.5683,126.9778,38.64,61,100,2.84
416,Mandalgovi,MN,2022-02-14 02:05:31,45.7625,106.2708,-4.74,89,62,10.11
417,Ushtobe,KZ,2022-02-14 02:05:32,45.2514,77.9838,27.43,87,100,4.83
418,Flinders,AU,2022-02-14 02:05:33,-34.5833,150.8552,83.17,56,97,7.0
419,Worland,US,2022-02-14 02:05:34,44.0169,-107.9554,42.15,64,0,4.61
420,Morros,BR,2022-02-14 02:05:35,-9.4467,-46.3003,73.13,88,98,2.24
421,Roma,US,2022-02-14 02:05:37,43.2128,-75.4557,12.85,71,0,6.91
422,Xinqing,CN,2022-02-14 02:05:38,48.2333,129.5,5.05,83,95,2.08
423,Iguape,BR,2022-02-14 02:05:40,-24.7081,-47.5553,73.51,90,8,5.75
424,Nantucket,US,2022-02-14 02:03:08,41.2835,-70.0995,36.14,91,100,21.61
425,Ajtos,BG,2022-02-14 02:05:41,42.7,27.25,35.02,94,60,3.33
426,Lafia,NG,2022-02-14 02:05:41,8.4833,8.5167,77.94,15,99,2.55
427,Namatanai,PG,2022-02-14 02:05:42,-3.6667,152.4333,85.1,69,84,6.29
428,Vangaindrano,MG,2022-02-14 02:05:43,-23.35,47.6,73.33,91,44,2.26
429,Durban,ZA,2022-02-14 02:05:43,-29.8579,31.0292,78.93,85,100,4.0
430,Krasavino,RU,2022-02-14 02:05:46,60.9614,46.4814,9.88,94,100,7.11
431,Azua,DO,2022-02-14 02:05:47,18.4532,-70.7349,70.05,77,3,4.0
432,Lensk,RU,2022-02-14 02:05:49,60.7253,114.9278,-14.46,95,96,1.28
433,Maloy,NO,2022-02-14 02:00:58,61.9353,5.1136,38.93,96,100,20.38
434,Calamar,CO,2022-02-14 02:05:49,10.2511,-74.9146,80.55,70,6,9.04
435,Petauke,ZM,2022-02-14 02:05:51,-14.2426,31.3253,63.88,98,100,0.85
436,Nemuro,JP,2022-02-14 02:05:51,43.3236,145.575,26.85,87,100,14.25
437,Nouadhibou,MR,2022-02-14 02:05:52,20.931,-17.0347,64.69,75,99,18.79
438,Bilibino,RU,2022-02-14 02:01:33,68.0546,166.4372,-22.95,98,89,1.5
439,Dhidhdhoo,MV,2022-02-14 02:05:52,6.8833,73.1,80.62,73,89,3.6
440,Venado Tuerto,AR,2022-02-14 02:05:54,-33.7456,-61.9688,61.9,35,0,2.62
441,Cayenne,GF,2022-02-14 02:05:56,4.9333,-52.3333,80.1,86,75,4.0
442,Vila,PT,2022-02-14 02:05:57,42.0304,-8.1588,42.33,93,92,6.51
443,Bauchi,NG,2022-02-14 02:05:57,10.5,10.0,64.09,19,52,4.72
444,Geraldton,AU,2022-02-14 02:05:58,-28.7667,114.6,82.81,65,0,6.91
445,Farafenni,GM,2022-02-14 02:05:59,13.5667,-15.6,74.01,17,46,8.32
446,Klaksvik,FO,2022-02-14 02:06:01,62.2266,-6.589,32.92,65,100,28.7
447,Botwood,CA,2022-02-14 02:05:23,49.1499,-55.3482,18.88,76,100,6.53
448,Quesnel,CA,2022-02-14 02:02:30,52.9999,-122.5029,32.88,99,100,2.8
449,Mandali,IQ,2022-02-14 02:06:02,33.7499,45.5541,52.68,46,0,3.44
450,Dukat,RU,2022-02-14 02:06:04,62.55,155.55,-13.63,92,52,4.18
451,Cururupu,BR,2022-02-14 02:06:04,-1.8283,-44.8683,74.53,96,99,3.47
452,Saint Anthony,US,2022-02-14 02:06:06,45.0205,-93.218,8.15,79,100,12.66
453,Tsumeb,NA,2022-02-14 02:06:09,-19.2333,17.7167,66.0,90,100,5.48
454,Banting,MY,2022-02-14 02:06:13,2.8167,101.5,82.53,82,98,1.07
455,Yining,CN,2022-02-14 02:06:13,29.0361,114.5636,48.65,70,5,0.98
456,Fort Saint James,CA,2022-02-14 02:06:14,54.4333,-124.25,31.57,99,100,0.76
457,Lazaro Cardenas,MX,2022-02-14 02:02:05,17.9583,-102.2,77.13,69,89,0.36
458,Robertsport,LR,2022-02-14 02:06:15,6.7533,-11.3686,78.89,88,6,7.2
459,Kingman,US,2022-02-14 02:06:14,35.1894,-114.053,63.19,11,0,6.91
460,Jawhar,SO,2022-02-14 02:06:16,2.7809,45.5005,71.67,81,100,10.45
461,Kasongo-Lunda,CD,2022-02-14 02:06:17,-6.4667,16.8167,70.16,98,100,2.06
462,Bandarbeyla,SO,2022-02-14 02:06:20,9.4942,50.8122,73.44,74,100,12.55
463,Santa Maria,BR,2022-02-14 02:06:21,-29.6842,-53.8069,60.78,36,0,0.45
464,Wanaka,NZ,2022-02-14 02:06:22,-44.7,169.15,70.11,43,96,5.99
465,Am Timan,TD,2022-02-14 02:06:23,11.0297,20.2827,74.35,16,100,6.98
466,Montlucon,FR,2022-02-14 02:06:24,46.3333,2.6,50.68,84,100,3.0
467,Saint George,US,2022-02-14 02:06:25,37.1041,-113.5841,61.39,18,0,1.99
468,Xai-Xai,MZ,2022-02-14 02:06:25,-25.0519,33.6442,74.84,89,52,1.03
469,Kayes,ML,2022-02-14 02:06:26,14.0,-11.0,73.17,14,30,8.14
470,Rivers,CA,2022-02-14 02:06:27,50.0308,-100.2403,2.53,86,12,12.08
471,Chernyshevskiy,RU,2022-02-14 02:04:57,63.0128,112.4714,-15.41,100,99,1.39
472,Berbera,SO,2022-02-14 02:06:28,10.4396,45.0143,72.3,74,8,5.41
473,Sur,OM,2022-02-14 02:06:29,22.5667,59.5289,70.18,72,0,14.63
474,Robore,BO,2022-02-14 02:06:29,-18.3333,-59.75,76.93,63,97,2.51
475,Muros,ES,2022-02-14 02:06:30,42.7762,-9.0603,53.24,93,9,18.03
476,Saint-Pierre,RE,2022-02-14 02:06:30,-21.3393,55.4781,78.48,73,0,3.44
477,Xichang,CN,2022-02-14 02:06:31,27.8964,102.2634,46.26,55,0,1.72
478,Kungurtug,RU,2022-02-14 02:06:33,50.5994,97.5228,-17.28,92,46,1.32
479,Ballina,AU,2022-02-14 02:06:35,-28.8667,153.5667,77.77,82,45,12.46
480,Bata,GQ,2022-02-14 02:06:35,1.8639,9.7658,77.7,84,100,6.76
481,Kununurra,AU,2022-02-14 02:03:28,-15.7667,128.7333,75.18,94,40,3.44
482,Porto Novo,BJ,2022-02-14 02:05:23,6.4965,2.6036,79.38,81,26,7.7
483,Tabas,IR,2022-02-14 02:06:46,33.5959,56.9244,46.06,49,0,7.2
484,Mareeba,AU,2022-02-14 02:06:47,-17.0,145.4333,84.43,65,56,7.74
485,Tobol,KZ,2022-02-14 02:06:47,52.6844,62.5794,12.45,97,100,1.48
486,Saiha,IN,2022-02-14 02:06:48,22.4833,92.9667,61.59,40,3,2.44
487,Muniz Freire,BR,2022-02-14 02:06:48,-20.4642,-41.4131,66.52,96,6,4.63
488,Petropavlovsk-Kamchatskiy,RU,2022-02-14 02:06:49,53.0452,158.6483,23.59,54,75,17.9
489,Polson,US,2022-02-14 02:06:50,47.6936,-114.1632,33.12,93,27,2.24
490,Ayagoz,KZ,2022-02-14 02:06:51,47.9714,80.4392,13.06,97,100,2.01
491,Kongolo,CD,2022-02-14 02:06:54,-5.3833,27.0,69.28,97,100,0.96
492,Sechura,PE,2022-02-14 02:06:57,-5.5569,-80.8222,74.75,72,98,11.27
493,Tyrma,RU,2022-02-14 02:06:58,50.0833,132.1667,15.33,88,100,3.49
494,Waddan,LY,2022-02-14 02:07:00,29.1614,16.139,49.86,50,0,9.44
495,Biak,ID,2022-02-14 02:04:50,-0.9131,122.8766,81.73,68,78,0.81
496,Novo Selo,MK,2022-02-14 02:07:02,41.4139,22.8811,39.9,90,84,1.03
497,Yarada,IN,2022-02-14 02:07:03,17.65,83.2667,64.72,88,20,2.3
498,Felanitx,ES,2022-02-14 02:07:04,39.4696,3.1483,54.12,89,6,11.56
499,Northam,GB,2022-02-14 02:07:04,51.0333,-4.2167,46.26,87,65,17.05
500,Biltine,TD,2022-02-14 02:07:05,14.5333,20.9167,72.34,12,100,14.9
501,Shipitsyno,RU,2022-02-14 02:07:07,61.2806,46.5208,8.87,95,100,7.47
502,Port Hawkesbury,CA,2022-02-14 02:06:46,45.6169,-61.3485,22.91,92,100,1.99
503,Eldorado,BR,2022-02-14 02:07:11,-23.7869,-54.2836,79.09,56,98,4.32
504,Fukue,JP,2022-02-14 02:07:12,32.6881,128.8419,53.19,60,8,20.15
505,Talaja,IN,2022-02-14 02:07:12,21.35,72.05,66.18,44,6,7.16
506,West Bay,KY,2022-02-14 02:07:14,19.3667,-81.4167,77.07,81,20,2.3
507,Haines Junction,CA,2022-02-14 02:07:15,60.7522,-137.5108,9.1,100,79,1.34
508,Noumea,NC,2022-02-14 02:07:17,-22.2763,166.4572,89.58,99,100,15.14
509,Swiecie,PL,2022-02-14 02:07:17,53.4095,18.4474,34.81,74,100,11.23
510,Laramie,US,2022-02-14 02:05:46,41.3114,-105.5911,36.95,40,0,16.11
511,Abha,SA,2022-02-14 02:07:20,18.2164,42.5053,44.85,46,0,0.0
512,Henderson,US,2022-02-14 02:05:47,36.0397,-114.9819,67.44,12,0,8.05
513,Palestine,PS,2022-02-14 02:07:21,31.9216,35.2033,44.02,86,41,7.14
514,Trairi,BR,2022-02-14 02:07:22,-3.2778,-39.2689,78.94,82,19,9.53
515,Pecos,US,2022-02-14 02:07:22,31.4229,-103.4932,58.3,20,0,4.61
516,Petrokamenskoye,RU,2022-02-14 02:07:23,57.716,60.6484,9.79,96,99,5.03
517,Shache,CN,2022-02-14 02:07:24,38.4167,77.2406,25.72,52,3,4.72
518,Nabire,ID,2022-02-14 02:07:27,-3.3667,135.4833,86.54,63,96,3.8
519,Hays,US,2022-02-14 02:07:28,30.0502,-98.0336,54.91,48,0,3.0
520,Mountain Home,US,2022-02-14 02:07:29,43.133,-115.6912,36.93,100,0,5.75
521,Sulecin,PL,2022-02-14 02:07:29,52.4443,15.1168,38.75,67,75,12.08
522,Teacapan,MX,2022-02-14 02:07:30,22.55,-105.75,71.13,63,100,9.57
523,Tondi,IN,2022-02-14 02:07:31,9.7333,79.0167,75.51,77,22,9.73
524,Surt,LY,2022-02-14 02:07:32,31.2089,16.5887,54.48,66,0,9.69
525,Vardo,NO,2022-02-14 02:07:34,70.3705,31.1107,23.59,87,100,17.11
526,Udimskiy,RU,2022-02-14 02:07:35,61.1417,45.9144,11.23,90,100,7.65
527,Ondjiva,AO,2022-02-14 02:07:37,-17.0667,15.7333,68.31,87,100,4.12
528,Verkhoyansk,RU,2022-02-14 02:07:37,67.5447,133.385,-15.36,87,96,1.43
529,Lavrentiya,RU,2022-02-14 02:07:38,65.5833,-171.0,-18.63,93,13,2.21
530,Sitka,US,2022-02-14 02:07:39,57.0531,-135.33,42.69,81,100,4.61
531,Raymond,US,2022-02-14 02:07:39,43.9015,-70.4703,23.58,52,100,8.3
532,Pacifica,US,2022-02-14 02:07:40,37.6138,-122.4869,70.74,69,75,11.5
533,Vilhena,BR,2022-02-14 02:06:12,-12.7406,-60.1458,68.83,99,100,2.73
534,Camana,PE,2022-02-14 02:07:41,-16.6228,-72.7111,71.22,83,21,6.58
535,Ibanda,TZ,2022-02-14 02:07:42,-2.7974,32.4746,63.45,86,100,3.29
536,Glazov,RU,2022-02-14 02:07:42,58.1394,52.6584,-3.15,100,100,1.66
537,Agua Verde,MX,2022-02-14 02:07:44,22.9,-106.05,75.29,58,100,10.6
538,Phoenix,US,2022-02-14 02:04:24,33.4484,-112.074,75.33,19,0,0.0
539,Anadyr,RU,2022-02-14 02:07:47,64.75,177.4833,-32.01,73,0,8.95
540,Langsa,ID,2022-02-14 02:07:49,4.4683,97.9683,82.53,68,47,2.42
541,Yumen,CN,2022-02-14 02:07:50,40.2833,97.2,26.46,42,2,12.8
542,Sumter,US,2022-02-14 02:07:51,28.7086,-82.0831,59.11,76,0,12.37
543,Sergeyevka,KZ,2022-02-14 02:07:51,53.88,67.4158,6.67,96,100,4.36
544,Luganville,VU,2022-02-14 02:07:52,-15.5333,167.1667,85.15,72,97,9.75
545,Charcas,MX,2022-02-14 02:07:53,23.1333,-101.1167,47.93,64,98,9.93
546,Manggar,ID,2022-02-14 02:07:54,-2.8833,108.2667,82.6,73,69,4.32
547,Mubende,UG,2022-02-14 02:07:55,0.5606,31.39,65.89,66,68,1.05
548,Kahului,US,2022-02-14 02:07:56,20.8947,-156.47,78.82,67,40,13.8
549,Phan Thiet,VN,2022-02-14 02:07:56,10.9333,108.1,84.7,61,84,11.59
550,Andover,GB,2022-02-14 02:07:25,51.2083,-1.4825,46.67,92,100,17.05
551,Aleksandrov Gay,RU,2022-02-14 02:07:58,50.147,48.5704,16.34,95,22,8.75
552,Darnah,LY,2022-02-14 02:07:59,32.767,22.6367,54.39,75,0,8.52
553,Amahai,ID,2022-02-14 02:08:00,-3.3333,128.9167,80.47,77,100,0.63
554,Yayva,RU,2022-02-14 02:08:03,59.3303,57.2641,3.11,98,100,0.67
555,Dicabisagan,PH,2022-02-14 02:08:03,17.0818,122.4157,81.37,73,78,7.27
556,Ingleside,US,2022-02-14 02:08:04,27.8778,-97.2117,55.63,62,0,8.05
557,Lipin Bor,RU,2022-02-14 02:08:04,60.2622,37.9763,26.6,95,100,12.19
558,Chunan,CN,2022-02-14 02:08:07,24.5277,110.548,46.2,81,45,4.14
559,Xuddur,SO,2022-02-14 02:08:08,4.1213,43.8894,67.06,74,100,13.02
560,Priamurskiy,RU,2022-02-14 02:08:09,48.5217,134.9028,7.21,90,100,3.06
561,Manjacaze,MZ,2022-02-14 02:08:09,-24.7117,33.8828,70.57,97,2,1.86
562,Kisangani,CD,2022-02-14 02:08:10,0.5167,25.2,68.94,89,99,3.02
563,Cejkovice,CZ,2022-02-14 02:08:11,48.9059,16.9423,35.83,82,3,14.47
564,Tikamgarh,IN,2022-02-14 02:08:12,24.745,78.8333,53.89,41,0,3.91
565,Lorengau,PG,2022-02-14 02:08:13,-2.0226,147.2712,83.98,73,92,2.86
566,Roald,NO,2022-02-14 02:08:13,62.5833,6.1333,41.16,87,100,33.38
567,Ust-Nera,RU,2022-02-14 02:08:14,64.5667,143.2,-22.4,95,47,0.89
568,Glebychevo,RU,2022-02-14 02:08:16,60.4387,28.7183,33.96,97,100,20.07
569,Shelburne,CA,2022-02-14 02:08:16,44.0787,-80.2041,8.76,79,100,2.89
570,Mount Isa,AU,2022-02-14 02:04:51,-20.7333,139.5,89.37,45,93,12.66
571,Santiago De Cao,PE,2022-02-14 02:08:17,-7.9589,-79.2392,69.93,83,63,9.22
572,Kariba,ZW,2022-02-14 02:08:17,-16.5167,28.8,69.39,82,95,3.06
573,Yeppoon,AU,2022-02-14 02:08:18,-23.1333,150.7333,85.78,73,55,20.4
574,Ayr,GB,2022-02-14 02:08:19,55.4627,-4.6339,42.31,93,100,2.3
575,Billings,US,2022-02-14 02:08:19,45.7833,-108.5007,44.37,47,75,10.36
576,Rypefjord,NO,2022-02-14 02:08:20,70.6333,23.6667,19.87,86,75,3.44
577,Aguimes,ES,2022-02-14 02:08:21,27.9054,-15.4461,59.67,72,20,12.66
